CountryCode,Latitude,Longitude,Name,State
US,51.91851584,-176.6385972,Adak,AK
US,56.944301,-154.208679,Akhiok,AK
US,60.91994601,-161.3964815,Akiachak,AK
US,60.90665451,-161.212993,Akiak,AK
US,54.129154,-165.793631,Akutan,AK
US,62.6972065,-164.6226915,Alakanuk,AK
US,66.548906,-152.825814,Alatna,AK
US,62.66176118,-141.1086643,Alcan Border,AK
US,59.265153,-158.607046,Aleknagik,AK
US,58.00871802,-152.8985656,Aleneva,AK
US,66.56676901,-152.6304725,Allakaket,AK
US,70.34827131,-150.9436505,Alpine,AK
US,67.06727949,-157.8693365,Ambler,AK
US,68.151384,-151.709515,Anaktuvuk Pass,AK
US,59.8051555,-151.611126,Anchor Point,AK
US,61.108818,-148.9823725,Anchorage,AK
US,64.3080025,-149.1398135,Anderson,AK
US,57.487453,-134.490292,Angoon,AK
US,61.59586251,-159.5481455,Aniak,AK
US,62.6515235,-160.2098135,Anvik,AK
US,68.133075,-145.5099665,Arctic Village,AK
US,52.2310185,-174.1985456,Atka,AK
US,60.857911,-162.267308,Atmautluak,AK
US,70.489043,-157.39876,Atqasuk,AK
US,52.8887925,173.2268215,Attu Station,AK
US,71.28691481,-156.683468,Barrow,AK
US,60.211282,-149.304326,Bear Creek,AK
US,66.38794,-147.3280405,Beaver,AK
US,61.1719138,-151.1522474,Beluga,AK
US,60.790454,-161.799123,Bethel,AK
US,66.90431249,-151.5377935,Bettles,AK
US,64.1673115,-145.6963845,Big Delta,AK
US,61.5232175,-149.941497,Big Lake,AK
US,66.2557185,-145.8157515,Birch Creek,AK
US,65.33818325,-166.4973301,Brevig Mission,AK
US,65.97926249,-161.1301825,Buckland,AK
US,61.728618,-149.0555655,Buffalo Soapstone,AK
US,61.5686065,-148.9723775,Butte,AK
US,63.422247,-148.658923,Cantwell,AK
US,65.5156045,-144.49028,Central,AK
US,66.6657565,-143.7773075,Chalkyitsik,AK
US,62.49414,-149.917709,Chase,AK
US,60.15343251,-164.2529175,Chefornak,AK
US,60.028797,-148.0682706,Chenega,AK
US,61.52436398,-165.57202,Chevak,AK
US,61.826471,-148.3110985,Chickaloon,AK
US,64.0735765,-141.6956145,Chicken,AK
US,56.30678028,-158.404652,Chignik,AK
US,56.30649678,-158.4948526,Chignik Lagoon,AK
US,56.249953,-158.7653595,Chignik Lake,AK
US,57.57053321,-152.242846,Chiniak,AK
US,62.106441,-141.96038,Chisana,AK
US,62.5742415,-144.668425,Chistochina,AK
US,61.531239,-144.2412735,Chitina,AK
US,61.5756425,-159.2423605,Chuathbaluk,AK
US,65.799893,-144.1980505,Circle,AK
US,60.209483,-151.378506,Clam Gulch,AK
US,56.001565,-132.8266501,Coffman Cove,AK
US,60.34200052,-151.25876,Cohoe,AK
US,55.18937243,-162.648921,Cold Bay,AK
US,67.2353795,-150.0322565,Coldfoot,AK
US,64.873746,-147.769416,College,AK
US,60.483285,-149.8045305,Cooper Landing,AK
US,62.00688449,-145.361374,Copper Center,AK
US,62.07230497,-145.4135829,Copperville,AK
US,60.5520165,-145.57743,Cordova,AK
US,59.390604,-136.05162,Covenant Life,AK
US,55.48721945,-133.1127509,Craig,AK
US,61.84557,-158.0532365,Crooked Creek,AK
US,60.42555299,-149.3537715,Crown Point,AK
US,57.9710915,-134.7200025,Cube Cove,AK
US,66.0741445,-162.7343492,Deering,AK
US,64.0619025,-145.703789,Delta Junction,AK
US,63.9889495,-145.2424655,Deltana,AK
US,59.69380367,-151.560707,Diamond Ridge,AK
US,59.066493,-158.4606115,Dillingham,AK
US,65.75405951,-168.9122195,Diomede,AK
US,63.6030985,-144.0855835,Dot Lake,AK
US,63.6586415,-143.998798,Dot Lake Village,AK
US,63.639722,-144.4930445,Dry Creek,AK
US,64.78523205,-141.1799736,Eagle,AK
US,64.7363375,-141.097843,Eagle Village,AK
US,55.9994715,-133.6251265,Edna Bay,AK
US,60.21596393,-162.0312758,Eek,AK
US,58.2288925,-157.4032753,Egegik,AK
US,64.6748455,-147.046126,Eielson AFB,AK
US,59.3472545,-157.4848255,Ekwok,AK
US,58.1852784,-136.3135735,Elfin Cove,AK
US,64.61168061,-162.273027,Elim,AK
US,62.779721,-164.538948,Emmonak,AK
US,64.8263705,-148.0706355,Ester,AK
US,66.913654,-151.3680585,Evansville,AK
US,58.42358,-135.368643,Excursion Inlet,AK
US,64.8282665,-147.6597645,Fairbanks,AK
US,54.8448965,-163.3593705,False Pass,AK
US,61.635565,-149.1167045,Farm Loop,AK
US,64.0368475,-148.852512,Ferry,AK
US,61.756199,-149.2099135,Fishhook,AK
US,62.421474,-158.018598,Flat,AK
US,63.856698,-145.699074,Fort Greely,AK
US,66.5929925,-145.237853,Fort Yukon,AK
US,64.60014853,-149.1143051,Four Mile Road,AK
US,64.982613,-147.5753775,Fox,AK
US,59.86267446,-151.019659,Fox River,AK
US,59.74425438,-151.277205,Fritz Creek,AK
US,60.4908295,-150.782569,Funny River,AK
US,62.339178,-145.240094,Gakona,AK
US,64.7427145,-156.8033175,Galena,AK
US,63.75010571,-171.695045,Gambell,AK
US,58.05809301,-135.4986255,Game Creek,AK
US,61.5739865,-149.213195,Gateway,AK
US,61.9188175,-147.603967,Glacier View,AK
US,62.141644,-145.69443,Glennallen,AK
US,64.56126263,-163.0097545,Golovin,AK
US,59.12462448,-161.5863475,Goodnews Bay,AK
US,62.8857685,-160.107585,Grayling,AK
US,62.23034,-145.3902845,Gulkana,AK
US,58.422348,-135.78116,Gustavus,AK
US,59.2464585,-135.441844,Haines,AK
US,59.5539605,-151.229419,Halibut Cove,AK
US,59.9276915,-151.5262165,Happy Valley,AK
US,64.36943,-146.514494,Harding-Birch Lakes,AK
US,64.004437,-148.6717915,Healy,AK
US,64.028251,-144.660026,Healy Lake,AK
US,57.435767,-133.2866305,Hobart Bay,AK
US,55.5138995,-132.6348425,Hollis,AK
US,62.183824,-159.823805,Holy Cross,AK
US,59.64899988,-151.4921791,Homer,AK
US,58.112609,-135.43101,Hoonah,AK
US,61.51359435,-166.0698111,Hooper Bay,AK
US,60.91269,-149.6193515,Hope,AK
US,61.6091745,-149.8120775,Houston,AK
US,66.04108057,-154.2582337,Hughes,AK
US,65.6852605,-156.405021,Huslia,AK
US,55.206236,-132.8165815,Hydaburg,AK
US,55.9756685,-130.0377035,Hyder,AK
US,59.3146795,-155.846606,Igiugig,AK
US,59.801387,-154.8472915,Iliamna,AK
US,55.91580999,-159.4861165,Ivanof Bay,AK
US,58.41713101,-134.1761,Juneau,AK
US,59.67589079,-151.4210814,Kachemak,AK
US,56.965009,-133.9323535,Kake,AK
US,70.13151743,-143.6099013,Kaktovik,AK
US,60.517153,-151.1805943,Kalifornsky,AK
US,64.3249575,-158.742044,Kaltag,AK
US,57.6003025,-154.3723615,Karluk,AK
US,55.5441505,-132.4272935,Kasaan,AK
US,60.8873575,-162.530154,Kasigluk,AK
US,60.329674,-151.2375835,Kasilof,AK
US,60.567081,-151.191227,Kenai,AK
US,61.687744,-144.807554,Kenny Lake,AK
US,55.34634369,-131.6620152,Ketchikan,AK
US,66.96983219,-160.430796,Kiana,AK
US,55.09191904,-162.322034,King Cove,AK
US,58.7806685,-156.537447,King Salmon,AK
US,59.935931,-164.055106,Kipnuk,AK
US,67.71940205,-164.4982155,Kivalina,AK
US,55.55444048,-133.081857,Klawock,AK
US,59.398116,-135.8885075,Klukwan,AK
US,61.4720695,-148.7284855,Knik River,AK
US,61.5002885,-149.531576,Knik-Fairview,AK
US,66.931387,-156.894301,Kobuk,AK
US,57.79312099,-152.403974,Kodiak,AK
US,57.711873,-152.514067,Kodiak Station,AK
US,59.420715,-154.6994245,Kokhanok,AK
US,59.697038,-157.2132595,Koliganek,AK
US,59.95720798,-162.874857,Kongiganak,AK
US,63.03015647,-163.5197399,Kotlik,AK
US,66.86482426,-162.489932,Kotzebue,AK
US,64.92627198,-161.1445705,Koyuk,AK
US,64.89836601,-157.665335,Koyukuk,AK
US,56.817668,-132.9578038,Kupreanof,AK
US,60.797642,-161.4121595,Kwethluk,AK
US,59.87570795,-163.1729965,Kwigillingok,AK
US,62.32808,-146.568876,Lake Louise,AK
US,63.816981,-152.4006355,Lake Minchumina,AK
US,61.606181,-149.3036545,Lakes,AK
US,57.53884149,-154.010966,Larsen Bay,AK
US,61.6477915,-148.9545875,Lazy Mountain,AK
US,59.0637245,-156.883257,Levelock,AK
US,61.321712,-155.262328,Lime Village,AK
US,65.4835305,-148.2135385,Livengood,AK
US,60.0726725,-149.4545935,Lowell Point,AK
US,61.51635752,-160.3564745,Lower Kalskag,AK
US,59.422444,-135.645029,Lutak,AK
US,65.0238485,-150.59794,Manley Hot Springs,AK
US,58.9956695,-159.0028095,Manokotak,AK
US,61.874829,-162.057554,Marshall,AK
US,61.4703895,-142.8391385,McCarthy,AK
US,62.9426275,-155.497875,McGrath,AK
US,63.6175455,-148.6778645,McKinley Park,AK
US,61.6313185,-149.5473855,Meadow Lakes,AK
US,60.37822525,-166.2024165,Mekoryuk,AK
US,62.1571415,-146.239181,Mendeltna,AK
US,62.9844675,-143.340927,Mentasta Lake,AK
US,55.11768639,-131.5666397,Metlakatla,AK
US,55.74182702,-132.2518325,Meyers Chuck,AK
US,59.6685935,-151.4430203,Miller Landing,AK
US,65.1047965,-149.3792455,Minto,AK
US,64.71286151,-147.1732495,Moose Creek,AK
US,60.506424,-149.4591185,Moose Pass,AK
US,59.47106,-136.0176285,Mosquito Lake,AK
US,62.09053,-163.7156725,Mountain Village,AK
US,59.16550018,-135.3779225,Mud Bay,AK
US,58.796303,-156.8814785,Naknek,AK
US,59.33286654,-151.866742,Nanwalek,AK
US,60.68368249,-161.9786255,Napakiak,AK
US,60.7059925,-161.7624485,Napaskiak,AK
US,55.88070099,-133.182456,Naukati Bay,AK
US,62.0028205,-146.7351015,Nelchina,AK
US,55.8605585,-161.5292315,Nelson Lagoon,AK
US,64.53347802,-149.095257,Nenana,AK
US,66.54266852,-152.6131541,New Allakaket,AK
US,59.47547949,-157.251533,New Stuyahok,AK
US,59.732842,-154.886445,Newhalen,AK
US,60.93468547,-164.6363594,Newtok,AK
US,60.4970965,-164.8126535,Nightmute,AK
US,60.715293,-151.1984042,Nikiski,AK
US,59.8291755,-151.544906,Nikolaevsk,AK
US,63.00801399,-154.380779,Nikolai,AK
US,52.99168108,-168.8133686,Nikolski,AK
US,60.0799975,-151.313495,Ninilchik,AK
US,67.570306,-162.976547,Noatak,AK
US,64.52157705,-165.362252,Nome,AK
US,59.968483,-154.8459775,Nondalton,AK
US,66.82870101,-161.033682,Noorvik,AK
US,64.75563949,-147.3682745,North Pole,AK
US,62.946137,-141.7730465,Northway,AK
US,63.013817,-141.760826,Northway Junction,AK
US,62.98198798,-141.910514,Northway Village,AK
US,70.2170015,-150.9686655,Nuiqsut,AK
US,64.717906,-158.075484,Nulato,AK
US,60.8773145,-162.449131,Nunapitchuk,AK
US,57.1990095,-153.292272,Old Harbor,AK
US,60.72469201,-161.7912915,Oscarville,AK
US,57.92268749,-152.4566606,Ouzinkie,AK
US,61.603436,-149.095752,Palmer,AK
US,63.006758,-145.7680705,Paxson,AK
US,59.77836949,-154.103784,Pedro Bay,AK
US,57.95935498,-136.220498,Pelican,AK
US,55.91562247,-159.12632,Perryville,AK
US,56.8030024,-132.9172315,Petersburg,AK
US,62.3207955,-150.594316,Petersville,AK
US,57.562198,-157.6065567,Pilot Point,AK
US,61.93808549,-162.882987,Pilot Station,AK
US,62.03296952,-163.2684701,Pitkas Point,AK
US,59.02981853,-161.7458148,Platinum,AK
US,64.899465,-146.8667045,Pleasant Valley,AK
US,56.34442871,-133.611919,Point Baker,AK
US,68.34802229,-166.648435,Point Hope,AK
US,69.7578545,-162.865209,Point Lay,AK
US,61.3376715,-150.044559,Point MacKenzie,AK
US,59.555017,-154.458048,Pope-Vannoy Landing,AK
US,56.2340475,-134.6502217,Port Alexander,AK
US,60.179989,-154.2695855,Port Alsworth,AK
US,65.0761585,-166.7315075,Port Clarence,AK
US,59.34565149,-151.8480115,Port Graham,AK
US,56.94153538,-158.5980979,Port Heiden,AK
US,57.87301294,-152.860356,Port Lions,AK
US,56.325226,-133.5827577,Port Protection,AK
US,58.8986075,-157.654806,Portage Creek,AK
US,60.3419895,-149.336599,Primrose,AK
US,70.333933,-148.7887689,Prudhoe Bay,AK
US,59.75087466,-161.9033636,Quinhagak,AK
US,65.4012825,-149.9132125,Rampart,AK
US,61.784767,-157.332758,Red Devil,AK
US,68.0718445,-162.890906,Red Dog Mine,AK
US,60.5288785,-151.0229315,Ridgeway,AK
US,64.7272355,-155.5048305,Ruby,AK
US,61.78619299,-161.330324,Russian Mission,AK
US,60.62485151,-151.2996615,Salamatof,AK
US,64.529537,-146.8593205,Salcha,AK
US,55.31795768,-160.493938,Sand Point,AK
US,63.67596129,-170.4891522,Savoonga,AK
US,55.32260904,-131.5894664,Saxman,AK
US,61.84187449,-165.5852175,Scammon Bay,AK
US,66.59727349,-160.011073,Selawik,AK
US,59.43961161,-151.7113404,Seldovia,AK
US,59.44100708,-151.5060775,Seldovia Village,AK
US,60.11917,-149.358498,Seward,AK
US,62.67024249,-159.5550525,Shageluk,AK
US,64.34996958,-161.1845665,Shaktoolik,AK
US,62.510147,-164.9013635,Sheldon Point (Nunam Iqua),AK
US,66.2375165,-166.095996,Shishmaref,AK
US,66.880749,-157.151484,Shungnak,AK
US,62.0188605,-145.3619605,Silver Springs,AK
US,56.7093015,-135.0443375,Sitka,AK
US,59.637142,-135.3743937,Skagway,AK
US,62.0171505,-151.242945,Skwentna,AK
US,62.6280095,-143.4901745,Slana,AK
US,61.657403,-157.015216,Sleetmute,AK
US,60.4878405,-151.033342,Soldotna,AK
US,58.6951105,-156.9400659,South Naknek,AK
US,56.57456,-169.572184,St. George,AK
US,63.46792966,-162.127389,St. Michael,AK
US,57.1756685,-170.2871805,St. Paul,AK
US,63.46792966,-162.2907064,Stebbins,AK
US,60.5344915,-150.717382,Sterling,AK
US,66.0143415,-149.0750015,Stevens Village,AK
US,61.786361,-156.5994295,Stony River,AK
US,60.8613415,-149.472858,Sunrise,AK
US,61.487145,-150.6312595,Susitna,AK
US,61.7966435,-148.8202735,Sutton-Alpine,AK
US,62.98693351,-155.9793305,Takotna,AK
US,62.27087,-150.0362515,Talkeetna,AK
US,63.3410245,-143.412052,Tanacross,AK
US,61.6639035,-149.4029395,Tanaina,AK
US,65.17483099,-152.07071,Tanana,AK
US,60.8946545,-146.68102,Tatitlek,AK
US,62.058898,-145.425675,Tazlina,AK
US,65.25207598,-166.324574,Teller,AK
US,57.7962845,-135.1932303,Tenakee Springs,AK
US,63.1524495,-142.40899,Tetlin,AK
US,56.1946705,-132.1936035,Thoms Place,AK
US,55.629609,-132.5381835,Thorne Bay,AK
US,59.09502199,-160.346683,Togiak,AK
US,63.378163,-143.010102,Tok,AK
US,60.541379,-165.1246927,Toksook Bay,AK
US,62.0903845,-146.029282,Tolsona,AK
US,61.586004,-144.965677,Tonsina,AK
US,62.348244,-150.3457315,Trapper Creek,AK
US,61.10784802,-160.9678606,Tuluksak,AK
US,60.3397915,-162.6633005,Tuntutuliak,AK
US,60.589631,-165.138747,Tununak,AK
US,59.10108651,-160.279165,Twin Hills,AK
US,64.8926495,-147.1198875,Two Rivers,AK
US,61.1279515,-151.362526,Tyonek,AK
US,57.5757885,-157.1547195,Ugashik,AK
US,63.897365,-160.791308,Unalakleet,AK
US,53.94330712,-166.5409695,Unalaska,AK
US,61.54188851,-160.3337325,Upper Kalskag,AK
US,61.114594,-146.2540521,Valdez,AK
US,67.0334265,-146.319363,Venetie,AK
US,70.64822916,-159.8685497,Wainwright,AK
US,65.61204502,-168.0788076,Wales,AK
US,61.576252,-149.450655,Wasilla,AK
US,56.1195345,-133.1310305,Whale Pass,AK
US,64.68018203,-163.4213671,White Mountain,AK
US,58.0620275,-135.406878,Whitestone Logging Camp,AK
US,60.7944515,-148.5803715,Whittier,AK
US,61.824819,-149.556721,Willow,AK
US,61.8794255,-145.186546,Willow Creek,AK
US,67.4253295,-150.1344065,Wiseman,AK
US,57.71611949,-152.526274,Womens Bay,AK
US,56.40848351,-132.3059577,Wrangell,AK
US,62.196324,-149.7173105,Y,AK
US,59.5869975,-139.481058,Yakutat,AK
US,31.5701405,-85.2535885,Abbeville,AL
US,33.61220091,-86.9557924,Adamsville,AL
US,34.202302,-87.1717455,Addison,AL
US,32.87596051,-87.73844002,Akron,AL
US,33.17052431,-86.77342932,Alabaster,AL
US,34.272822,-86.202083,Albertville,AL
US,32.898819,-85.918576,Alexander City,AL
US,33.7685305,-85.884776,Alexandria,AL
US,33.123471,-88.15319099,Aliceville,AL
US,33.9106375,-86.51293299,Allgood,AL
US,34.031328,-86.306387,Altoona,AL
US,31.324267,-86.45472701,Andalusia,AL
US,34.92652251,-87.26787052,Anderson,AL
US,33.69503193,-85.84056483,Anniston,AL
US,34.334242,-86.484741,Arab,AL
US,34.98453251,-86.83731405,Ardmore,AL
US,33.64102604,-86.51493259,Argo,AL
US,31.599936,-85.712883,Ariton,AL
US,34.095997,-87.19878501,Arley,AL
US,31.1783835,-85.236276,Ashford,AL
US,33.269122,-85.80552051,Ashland,AL
US,33.8355795,-86.245221,Ashville,AL
US,34.7764245,-86.9372445,Athens,AL
US,31.02310623,-87.49336035,Atmore,AL
US,34.0042595,-86.0995915,Attalla,AL
US,32.66927228,-85.48996592,Auburn,AL
US,32.4269645,-86.656884,Autaugaville,AL
US,31.1804475,-85.27780599,Avon,AL
US,31.30394649,-86.30081646,Babbie,AL
US,34.2668295,-86.612273,Baileyton,AL
US,31.811969,-85.838683,Banks,AL
US,30.8755895,-87.76565399,Bay Minette,AL
US,30.4076475,-88.24676399,Bayou La Batre,AL
US,34.268771,-87.68734101,Bear Creek,AL
US,31.73020749,-87.20251546,Beatrice,AL
US,33.9363415,-88.021892,Beaverton,AL
US,33.65753749,-87.92561798,Belk,AL
US,32.30836549,-86.81462397,Benton,AL
US,33.663277,-87.6102375,Berry,AL
US,33.34584677,-86.87736989,Bessemer,AL
US,32.6629355,-86.710117,Billingsley,AL
US,33.60815701,-86.62186403,Birmingham,AL
US,31.010321,-85.75048699,Black,AL
US,34.0770525,-86.5774555,Blountsville,AL
US,33.68750203,-85.83816508,Blue Mountain,AL
US,32.5011665,-86.17420801,Blue Ridge,AL
US,31.663492,-85.50452401,Blue Springs,AL
US,34.16879346,-86.1698439,Boaz,AL
US,32.772243,-88.023288,Boligee,AL
US,33.26236099,-86.33209147,Bon Air,AL
US,33.64728,-86.42536301,Branchville,AL
US,31.58167099,-86.25399298,Brantley,AL
US,32.9530175,-87.169335,Brent,AL
US,31.1201015,-87.078739,Brewton,AL
US,34.945027,-85.71119451,Bridgeport,AL
US,33.44052201,-86.94013203,Brighton,AL
US,33.996311,-87.787203,Brilliant,AL
US,33.6313485,-86.8883795,Brookside,AL
US,33.2416355,-87.3155865,Brookwood,AL
US,31.714832,-85.822318,Brundidge,AL
US,32.097164,-88.20390499,Butler,AL
US,33.610547,-85.9506295,Bynum,AL
US,33.458641,-86.72548351,Cahaba Heights,AL
US,33.1270105,-86.7328875,Calera,AL
US,32.0060225,-87.27724601,Camden,AL
US,32.789654,-85.65347951,Camp Hill,AL
US,33.87804679,-87.53173195,Carbon Hill,AL
US,33.64623345,-86.93075837,Cardiff,AL
US,31.23909947,-86.51914642,Carolina,AL
US,33.255726,-88.09517701,Carrollton,AL
US,31.3048885,-87.02733,Castleberry,AL
US,34.220234,-85.584095,Cedar Bluff,AL
US,33.6447815,-86.6696435,Center Point,AL
US,34.157009,-85.6859195,Centre,AL
US,32.93345197,-87.14670292,Centreville,AL
US,33.6771075,-86.64231399,Chalkville,AL
US,31.4701295,-88.2377625,Chatom,AL
US,33.36771051,-86.65087553,Chelsea,AL
US,34.75843049,-87.96250898,Cherokee,AL
US,30.772375,-88.064446,Chickasaw,AL
US,33.21425543,-86.32420551,Childersburg,AL
US,31.09268,-88.2152205,Citronelle,AL
US,32.839528,-86.5922855,Clanton,AL
US,33.715325,-86.603594,Clay,AL
US,31.2464045,-85.707498,Clayhatchee,AL
US,31.8862265,-85.4565115,Clayton,AL
US,33.996834,-86.5706725,Cleveland,AL
US,31.7237175,-85.61938001,Clio,AL
US,33.162781,-87.345307,Coaling,AL
US,31.1645755,-85.911176,Coffee Springs,AL
US,31.76343549,-88.08125549,Coffeeville,AL
US,33.2435765,-87.68323301,Coker,AL
US,34.2662835,-85.855688,Collinsville,AL
US,33.9408415,-86.8916885,Colony,AL
US,31.2924895,-85.113593,Columbia,AL
US,33.17128,-86.58245551,Columbiana,AL
US,33.467108,-87.0370025,Concord,AL
US,32.50104,-86.3334135,Coosada,AL
US,33.772154,-87.1868415,Cordova,AL
US,31.0551225,-85.29972749,Cottonwood,AL
US,33.8269535,-86.7200065,County Line,AL
US,34.66848599,-87.29856749,Courtland,AL
US,31.2024555,-85.306726,Cowarts,AL
US,30.8878835,-87.9962575,Creola,AL
US,34.286759,-85.993439,Crossville,AL
US,32.44002351,-88.36431552,Cuba,AL
US,34.18091303,-86.8058163,Cullman,AL
US,32.8376985,-85.7559695,Dadeville,AL
US,31.32526004,-85.74861062,Daleville,AL
US,30.627092,-87.8786465,Daphne,AL
US,30.2415275,-88.227233,Dauphin Island,AL
US,33.0556185,-85.63706899,Daviston,AL
US,32.3509475,-87.6416705,Dayton,AL
US,32.5946715,-86.39088251,Deatsville,AL
US,34.62387102,-87.04935004,Decatur,AL
US,32.502098,-87.8200615,Demopolis,AL
US,34.0313025,-88.169445,Detroit,AL
US,34.0492255,-86.870767,Dodge City,AL
US,33.7276885,-87.07959501,Dora,AL
US,31.16014391,-85.42499826,Dothan,AL
US,34.14103,-87.3924945,Double Springs,AL
US,34.172929,-86.30539601,Douglas,AL
US,31.5002285,-86.3745125,Dozier,AL
US,34.60623701,-85.90966653,Dutton,AL
US,31.092403,-87.04668149,East Brewton,AL
US,32.645996,-86.030349,Eclectic,AL
US,33.52903,-86.95739351,Edgewater,AL
US,33.7033185,-85.50891601,Edwardsville,AL
US,31.408716,-86.054847,Elba,AL
US,30.415913,-87.589689,Elberta,AL
US,33.92712051,-87.61851352,Eldridge,AL
US,34.92891151,-86.97643052,Elkmont,AL
US,32.54479251,-86.31656453,Elmore,AL
US,32.72670098,-88.31571094,Emelle,AL
US,31.28329815,-85.81492511,Enterprise,AL
US,32.6919775,-88.124915,Epes,AL
US,33.41415099,-88.21785549,Ethelsville,AL
US,31.92635543,-85.09745172,Eufaula,AL
US,31.0378035,-85.84567399,Eunola,AL
US,32.8346335,-87.884935,Eutaw,AL
US,34.330139,-86.746885,Eva,AL
US,31.429087,-86.9566585,Evergreen,AL
US,31.42766199,-87.33546897,Excel,AL
US,33.4757125,-86.92263449,Fairfield,AL
US,30.49260244,-87.88274233,Fairhope,AL
US,34.2476275,-86.68405051,Fairview,AL
US,34.3835245,-86.9037735,Falkville,AL
US,32.45838996,-87.59431638,Faunsdale,AL
US,33.6924205,-87.82566749,Fayette,AL
US,33.0173145,-85.35164401,Five Points,AL
US,31.01530137,-87.24326,Flomaton,AL
US,31.0213035,-86.31001308,Florala,AL
US,34.854286,-87.6263955,Florence,AL
US,30.33136068,-87.68372251,Foley,AL
US,33.58967711,-86.93188049,Forestdale,AL
US,32.652048,-87.85958449,Forkland,AL
US,31.9955925,-86.557787,Fort Deposit,AL
US,34.4788225,-85.63383,Fort Payne,AL
US,31.34332,-85.7107205,Fort Rucker,AL
US,32.45701499,-85.79231598,Franklin,AL
US,31.4353065,-87.40334,Frisco City,AL
US,33.730258,-85.4296415,Fruithurst,AL
US,31.78904401,-87.72368602,Fulton,AL
US,33.63534479,-86.78826477,Fultondale,AL
US,34.448084,-85.88783699,Fyffe,AL
US,34.0216465,-85.9789205,Gadsden,AL
US,32.81491551,-88.15981652,Gainesville,AL
US,31.40747698,-86.48396395,Gantt,AL
US,33.14918349,-86.29652797,Gantts Quarry,AL
US,34.0167395,-86.74431301,Garden City,AL
US,33.6694685,-86.7935575,Gardendale,AL
US,34.26702098,-85.55849596,Gaylesville,AL
US,32.8668775,-88.313666,Geiger,AL
US,31.0578435,-85.8577905,Geneva,AL
US,31.6335205,-86.7505095,Georgiana,AL
US,34.35789699,-85.99123749,Geraldine,AL
US,31.87818752,-88.31571405,Gilbertown,AL
US,33.91341,-87.703417,Glen Allen,AL
US,33.95579152,-85.90377922,Glencoe,AL
US,31.66780999,-86.17331298,Glenwood,AL
US,33.08539351,-85.78194252,Goldville,AL
US,34.11717,-86.851087,Good Hope,AL
US,33.0503265,-86.0465225,Goodwater,AL
US,33.321958,-87.90328401,Gordo,AL
US,31.145911,-85.09586351,Gordon,AL
US,32.152195,-86.712071,Gordonville,AL
US,31.7180825,-86.12398301,Goshen,AL
US,30.461698,-88.348647,Grand Bay,AL
US,34.518599,-86.2243965,Grant,AL
US,33.64714051,-86.63871152,Grayson Valley,AL
US,33.61616281,-86.9201223,Graysville,AL
US,32.704254,-87.58500051,Greensboro,AL
US,31.8238525,-86.621754,Greenville,AL
US,31.3063935,-85.446219,Grimes,AL
US,31.699756,-87.775239,Grove Hill,AL
US,33.9506045,-87.87015999,Gu-Win,AL
US,34.01629199,-87.93463347,Guin,AL
US,30.27791283,-87.712383,Gulf Shores,AL
US,34.36210185,-86.24030662,Guntersville,AL
US,34.698536,-86.37059451,Gurley,AL
US,34.2673855,-87.800925,Hackleburg,AL
US,31.40400899,-85.13807248,Haleburg,AL
US,34.18787367,-87.618525,Haleyville,AL
US,34.17343449,-88.02833698,Hamilton,AL
US,34.5637775,-85.6424545,Hammondville,AL
US,34.0745125,-86.762907,Hanceville,AL
US,33.319858,-86.4197985,Harpersville,AL
US,31.10409499,-85.68233348,Hartford,AL
US,34.41057344,-86.90050484,Hartselle,AL
US,34.858728,-86.7470865,Harvest,AL
US,33.89907499,-86.75984797,Hayden,AL
US,32.17889901,-86.57869703,Hayneville,AL
US,34.9315665,-86.5533435,Hazel Green,AL
US,31.3521955,-85.342482,Headland,AL
US,31.354667,-86.46567249,Heath,AL
US,33.647675,-85.561497,Heflin,AL
US,33.292346,-86.874465,Helena,AL
US,34.633048,-85.7374565,Henagar,AL
US,33.883697,-86.42460449,Highland Lake,AL
US,34.63903701,-87.17646002,Hillsboro,AL
US,33.61528,-85.85346851,Hobson City,AL
US,34.32791099,-87.92888348,Hodges,AL
US,33.96765869,-85.86084621,Hokes Bluff,AL
US,34.1774395,-86.60829699,Holly Pond,AL
US,34.729623,-85.9643795,Hollywood,AL
US,33.219859,-87.4738775,Holt,AL
US,33.458101,-86.803232,Homewood,AL
US,33.35150996,-86.77426439,Hoover,AL
US,31.238511,-86.3164195,Horn Hill,AL
US,33.39664701,-87.05548952,Hueytown,AL
US,32.8535425,-85.2435695,Huguley,AL
US,34.64043734,-86.46967084,Huntsville,AL
US,32.2431595,-85.414296,Hurtsboro,AL
US,34.9111935,-86.0808065,Hytop,AL
US,34.7002105,-85.6689155,Ider,AL
US,33.37087899,-86.73626699,Indian Springs Village,AL
US,33.563537,-86.64131651,Irondale,AL
US,31.542153,-87.887477,Jackson,AL
US,33.82690546,-85.78287239,Jacksonville,AL
US,33.8496465,-87.2504275,Jasper,AL
US,32.9555985,-86.739175,Jemison,AL
US,33.904238,-87.56018149,Kansas,AL
US,33.576891,-87.98344201,Kennedy,AL
US,34.8585095,-87.52360601,Killen,AL
US,33.771917,-86.7899135,Kimberly,AL
US,31.288456,-85.335573,Kinsey,AL
US,31.2199705,-86.170415,Kinston,AL
US,32.8997305,-85.4040795,La Fayette,AL
US,32.46043,-85.0848385,Ladonia,AL
US,33.42969151,-86.70874983,Lake Purdy,AL
US,33.2801675,-87.13518499,Lake View,AL
US,34.39108155,-85.97606413,Lakeview,AL
US,32.89141154,-85.23582659,Lanett,AL
US,34.5301255,-86.0846865,Langston,AL
US,33.5373305,-86.557721,Leeds,AL
US,34.18722599,-85.75942299,Leesburg,AL
US,34.70208899,-87.52902597,Leighton,AL
US,34.98760652,-87.1515409,Lester,AL
US,31.3091525,-85.7657175,Level Plains,AL
US,34.95281201,-87.37832501,Lexington,AL
US,31.24160151,-86.45681252,Libertyville,AL
US,33.64451798,-86.07107395,Lincoln,AL
US,32.304746,-87.79005151,Linden,AL
US,33.3230405,-85.7338855,Lineville,AL
US,33.4282605,-86.92521099,Lipscomb,AL
US,32.181676,-88.297106,Lisman,AL
US,34.592512,-87.670669,Littleville,AL
US,32.598215,-88.190971,Livingston,AL
US,32.60495001,-85.59922101,Loachapoka,AL
US,31.013125,-86.34292649,Lockhart,AL
US,33.91567353,-86.60603406,Locust Fork,AL
US,31.783046,-85.5643095,Louisville,AL
US,32.27655,-86.61305451,Lowndesboro,AL
US,30.62954,-87.76414699,Loxley,AL
US,31.709741,-86.263863,Luverne,AL
US,34.0432165,-87.54485,Lynn,AL
US,33.40424701,-88.24227953,Macedonia,AL
US,34.7094925,-86.746402,Madison,AL
US,31.035673,-85.39721551,Madrid,AL
US,31.1392685,-85.51951,Malvern,AL
US,32.774079,-86.8770715,Maplesville,AL
US,33.6776805,-86.455257,Margaret,AL
US,32.63782,-87.3116665,Marion,AL
US,33.56594601,-86.99577052,Maytown,AL
US,33.52125551,-86.93554252,McDonald Chapel,AL
US,31.26275602,-88.02362355,McIntosh,AL
US,31.5338055,-86.7191685,McKenzie,AL
US,33.14822158,-88.17543471,McMullen,AL
US,33.4045395,-86.70268151,Meadowbrook,AL
US,33.13632299,-88.30090097,Memphis,AL
US,34.56463349,-85.58981949,Mentone,AL
US,34.87328,-86.5533075,Meridianville,AL
US,33.4581315,-86.93074149,Midfield,AL
US,31.3111335,-85.486816,Midland City,AL
US,32.07021102,-85.52041157,Midway,AL
US,33.194912,-86.26014449,Mignon,AL
US,32.50135899,-86.41480548,Millbrook,AL
US,33.561156,-88.07047001,Millport,AL
US,31.624938,-88.3223575,Millry,AL
US,33.53959601,-86.93794303,Minor,AL
US,30.81322392,-88.06263126,Mobile,AL
US,31.47644301,-87.33160954,Monroeville,AL
US,33.12684103,-86.85838558,Montevallo,AL
US,32.3437795,-86.2992865,Montgomery,AL
US,33.5972395,-86.4729655,Moody,AL
US,34.854278,-86.5196055,Moores Mill,AL
US,34.625935,-86.880084,Mooresville,AL
US,33.7434475,-86.79129499,Morris,AL
US,32.1758055,-86.671672,Mosses,AL
US,34.4875465,-87.272383,Moulton,AL
US,32.9942035,-87.626215,Moundville,AL
US,33.6835625,-86.86257599,Mount Olive,AL
US,31.091491,-88.01401201,Mount Vernon,AL
US,33.479907,-86.7212435,Mountain Brook,AL
US,34.14722951,-86.13891201,Mountainboro,AL
US,33.552623,-86.96998251,Mulga,AL
US,33.5345965,-85.950699,Munford,AL
US,34.7497685,-87.633428,Muscle Shoals,AL
US,32.250806,-87.94406301,Myrtlewood,AL
US,31.31440703,-85.45065659,Napier Field,AL
US,34.09040902,-87.60164506,Natural Bridge,AL
US,33.98577401,-87.48692203,Nauvoo,AL
US,33.96698127,-86.64586268,Nectar,AL
US,31.98735751,-88.33725553,Needham,AL
US,31.3808685,-85.9182405,New Brockton,AL
US,34.5390065,-86.408697,New Hope,AL
US,34.895556,-86.419724,New Market,AL
US,33.0312575,-85.792383,New Site,AL
US,32.5918815,-87.53317549,Newbern,AL
US,31.3478925,-85.577586,Newton,AL
US,31.4219895,-85.3440795,Newville,AL
US,33.19460892,-87.1405306,North Bibb,AL
US,34.67746398,-87.30573646,North Courtland,AL
US,33.36754354,-87.10129111,North Johns,AL
US,33.2695745,-87.5819635,Northport,AL
US,32.557242,-85.66409549,Notasulga,AL
US,33.19040801,-86.30227552,Oak Grove,AL
US,31.92156951,-87.08524853,Oak Hill,AL
US,33.71438951,-87.38675952,Oakman,AL
US,33.6816105,-86.39500099,Odenville,AL
US,33.8010705,-86.030651,Ohatchee,AL
US,33.9407145,-86.4696095,Oneonta,AL
US,31.22295651,-86.27697902,Onycha,AL
US,32.656086,-85.339012,Opelika,AL
US,31.296647,-86.2595415,Opp,AL
US,30.27943706,-87.53296841,Orange Beach,AL
US,32.30677651,-87.24537802,Orrville,AL
US,34.6009995,-86.4649905,Owens Cross Roads,AL
US,33.62902997,-85.75010291,Oxford,AL
US,31.426701,-85.6217415,Ozark,AL
US,34.66020053,-86.33072508,Paint Rock,AL
US,33.7308175,-87.27508149,Parrish,AL
US,33.33639,-86.7240935,Pelham,AL
US,33.59880327,-86.32174761,Pell City,AL
US,32.200148,-88.04146699,Pennington,AL
US,31.84941999,-86.20568948,Petrey,AL
US,32.48019649,-85.06938447,Phenix City,AL
US,34.351793,-87.70882299,Phil Campbell,AL
US,33.23400571,-88.27170271,Pickensville,AL
US,33.90685899,-85.62858148,Piedmont,AL
US,32.27944643,-86.1292683,Pike Road,AL
US,31.320767,-85.5410925,Pinckard,AL
US,31.8728015,-86.98442301,Pine Apple,AL
US,31.9841925,-87.58386149,Pine Hill,AL
US,34.4481595,-85.77981349,Pine Ridge,AL
US,33.6965775,-86.6657545,Pinson,AL
US,34.6860855,-85.84330151,Pisgah,AL
US,33.500599,-86.9617975,Pleasant Grove,AL
US,34.7338805,-86.195032,Pleasant Groves,AL
US,30.48738764,-87.90193691,Point Clear,AL
US,31.0243705,-87.1720105,Pollard,AL
US,34.534082,-85.88099251,Powell,AL
US,32.4658885,-86.4190565,Prattville,AL
US,34.5324175,-86.895655,Priceville,AL
US,30.7705375,-88.092449,Prichard,AL
US,32.33601999,-87.77441948,Providence,AL
US,33.7436485,-86.1525285,Ragland,AL
US,33.9303475,-86.041122,Rainbow City,AL
US,34.499341,-85.814082,Rainsville,AL
US,33.52507218,-85.33442193,Ranburne,AL
US,34.4474035,-88.127785,Red Bay,AL
US,31.4064435,-86.603186,Red Level,AL
US,34.6890045,-86.63010701,Redstone Arsenal,AL
US,34.0786425,-86.027446,Reece City,AL
US,33.362758,-88.0151215,Reform,AL
US,31.15704224,-85.42132267,Rehobeth,AL
US,31.40925397,-87.23838893,Repton,AL
US,34.05951449,-86.10583398,Ridgeville,AL
US,31.3508925,-86.53969,River Falls,AL
US,33.621316,-86.19706,Riverside,AL
US,31.06069901,-87.06284152,Riverview,AL
US,33.145833,-85.362338,Roanoke,AL
US,30.5544115,-87.6960095,Robertsdale,AL
US,33.47527651,-87.07405902,Rock Creek,AL
US,33.15918149,-85.27033498,Rock Mills,AL
US,32.90086101,-86.21140952,Rockford,AL
US,34.8255055,-87.278257,Rogersville,AL
US,33.986218,-86.49254799,Rosa,AL
US,34.53525232,-87.73520659,Russellville,AL
US,31.737459,-86.2951215,Rutledge,AL
US,33.72193,-85.837115,Saks,AL
US,31.117138,-86.0428335,Samson,AL
US,34.2353225,-85.769054,Sand Rock,AL
US,31.3003705,-86.39642649,Sanford,AL
US,30.8568075,-88.099966,Saraland,AL
US,34.176577,-86.1078555,Sardis City,AL
US,30.8567345,-88.0431485,Satsuma,AL
US,34.71444046,-86.03370491,Scottsboro,AL
US,34.5850055,-85.9845715,Section,AL
US,32.417729,-87.0259315,Selma,AL
US,32.380644,-87.00241249,Selmont-West Selmont,AL
US,34.7558885,-87.692829,Sheffield,AL
US,34.47364151,-85.88628103,Shiloh,AL
US,32.39649098,-85.96965444,Shorter,AL
US,31.7568895,-88.3083925,Silas,AL
US,30.544613,-87.74641499,Silverhill,AL
US,33.82156702,-87.08064456,Sipsey,AL
US,34.792596,-86.130765,Skyline,AL
US,31.099326,-85.595222,Slocomb,AL
US,32.5796605,-85.06056332,Smiths,AL
US,33.8813805,-86.81531451,Smoke Rise,AL
US,34.1248905,-86.3847795,Snead,AL
US,34.46627498,-86.79694095,Somerville,AL
US,34.23675602,-86.86072505,South Vinemont,AL
US,33.899908,-86.010167,Southside,AL
US,30.674267,-87.89237049,Spanish Fort,AL
US,33.74367998,-86.42818046,Springville,AL
US,34.8600595,-87.61644751,St. Florian,AL
US,33.943166,-86.1921585,Steele,AL
US,34.880067,-85.809533,Stevenson,AL
US,33.889473,-88.119996,Sulligent,AL
US,33.7557255,-87.0473265,Sumiton,AL
US,30.45664472,-87.68198026,Summerdale,AL
US,34.07516,-86.416669,Susan Moore,AL
US,32.108344,-87.86631049,Sweet Water,AL
US,33.202729,-86.19348849,Sylacauga,AL
US,33.510707,-87.0314005,Sylvan Springs,AL
US,34.54154194,-85.81410636,Sylvania,AL
US,33.433218,-86.0890885,Talladega,AL
US,33.119183,-86.44202099,Talladega Springs,AL
US,32.5442745,-85.89085,Tallassee,AL
US,33.613698,-86.76008499,Tarrant,AL
US,31.163509,-85.45912099,Taylor,AL
US,30.5546935,-88.15570051,Theodore,AL
US,32.2615275,-87.62292649,Thomaston,AL
US,31.919691,-87.74257,Thomasville,AL
US,32.9141765,-86.7192,Thorsby,AL
US,30.5905425,-88.177351,Tillmans Corner,AL
US,34.6660075,-87.412012,Town Creek,AL
US,31.91024902,-88.31209455,Toxey,AL
US,33.83530749,-86.76122246,Trafford,AL
US,34.59548718,-86.7583717,Triana,AL
US,34.604172,-87.078339,Trinity,AL
US,31.8135605,-85.9526105,Troy,AL
US,33.627192,-86.6062195,Trussville,AL
US,33.33740923,-87.61193579,Tuscaloosa,AL
US,34.7254595,-87.6885795,Tuscumbia,AL
US,32.4513895,-85.70675,Tuskegee,AL
US,34.877364,-87.68647749,Underwood-Petersville,AL
US,32.99529801,-87.90671602,Union,AL
US,34.40209252,-86.44911954,Union Grove,AL
US,32.135252,-85.7091135,Union Springs,AL
US,32.44755098,-87.50284844,Uniontown,AL
US,32.77777352,-85.19496105,Valley,AL
US,34.551102,-85.6246155,Valley Head,AL
US,33.1549565,-87.219201,Vance,AL
US,33.7668495,-88.1088015,Vernon,AL
US,33.43922504,-86.74356201,Vestavia Hills,AL
US,34.3750915,-88.0544385,Vina,AL
US,33.3941325,-86.414203,Vincent,AL
US,31.82375601,-87.31776003,Vredenburgh,AL
US,33.12492701,-85.56969003,Wadley,AL
US,33.387588,-86.03485,Waldo,AL
US,34.060046,-86.2784045,Walnut Grove,AL
US,33.84131399,-86.81337897,Warrior,AL
US,34.91632451,-88.06601853,Waterloo,AL
US,32.733034,-85.57284349,Waverly,AL
US,33.758531,-85.80232151,Weaver,AL
US,31.257024,-85.283879,Webb,AL
US,33.2992545,-85.47219399,Wedowee,AL
US,33.1258825,-87.1202835,West Blocton,AL
US,33.660792,-85.86698951,West End-Cobb Town,AL
US,33.64761398,-87.06774444,West Jefferson,AL
US,34.23958849,-86.94185199,West Point,AL
US,32.5405615,-86.1940005,Wetumpka,AL
US,32.3048045,-86.69144,White Hall,AL
US,33.2365015,-86.4951765,Wilsonville,AL
US,33.0819495,-86.87917699,Wilton,AL
US,33.98835507,-87.77858719,Winfield,AL
US,33.37034652,-85.39145254,Woodland,AL
US,34.627806,-86.281702,Woodville,AL
US,31.96163894,-87.47425533,Yellow Bluff,AL
US,32.4945095,-88.291659,York,AL
US,35.03640152,-92.89913006,Adona,AR
US,34.63264903,-92.44324158,Alexander,AR
US,35.89387961,-91.08258278,Alicia,AR
US,34.53816196,-91.78287341,Allport,AR
US,35.48113216,-94.24462093,Alma,AR
US,34.40586502,-91.41083456,Almyra,AR
US,36.28929101,-93.30252902,Alpena,AR
US,34.327109,-91.842271,Altheimer,AR
US,35.4573115,-93.768185,Altus,AR
US,35.56105326,-91.10886734,Amagon,AR
US,34.267101,-93.449003,Amity,AR
US,35.03989266,-90.34046142,Anthonyville,AR
US,34.033367,-93.42083951,Antoine,AR
US,34.124678,-93.0714645,Arkadelphia,AR
US,33.60777747,-91.20822943,Arkansas City,AR
US,36.233456,-91.6036165,Ash Flat,AR
US,33.684181,-94.11967851,Ashdown,AR
US,35.255198,-92.9558865,Atkins,AR
US,34.7202515,-90.895827,Aubrey,AR
US,35.3011975,-91.35590301,Augusta,AR
US,35.004673,-91.989856,Austin,AR
US,36.3959175,-94.06245249,Avoca,AR
US,35.3126875,-91.571647,Bald Knob,AR
US,33.57586901,-92.26713453,Banks,AR
US,35.31692,-94.292702,Barling,AR
US,35.53568401,-90.12966252,Bassett,AR
US,35.7904705,-91.63984699,Batesville,AR
US,34.56135251,-92.49805751,Bauxite,AR
US,35.71782313,-90.55572933,Bay,AR
US,33.72965099,-92.61384897,Bearden,AR
US,36.47412232,-93.76637705,Beaver,AR
US,35.06649951,-91.93059953,Beebe,AR
US,35.427465,-91.11111851,Beedeville,AR
US,36.4507675,-94.27477288,Bella Vista,AR
US,36.200122,-93.0485875,Bellefonte,AR
US,35.088782,-93.44618551,Belleville,AR
US,33.833293,-94.11785751,Ben Lomond,AR
US,34.60599051,-92.54085802,Benton,AR
US,36.3666415,-94.2144945,Bentonville,AR
US,36.3165,-93.00502499,Bergman,AR
US,36.371682,-93.5575065,Berryville,AR
US,36.2248225,-94.124222,Bethel Heights,AR
US,35.98945055,-92.41452729,Big Flat,AR
US,35.000369,-92.6287705,Bigelow,AR
US,36.33135999,-90.80534348,Biggers,AR
US,35.45996492,-90.26166779,Birdsong,AR
US,35.83806805,-90.36769163,Black Oak,AR
US,36.10574751,-91.09295252,Black Rock,AR
US,34.46236498,-93.70903746,Black Springs,AR
US,33.87162798,-93.57759494,Blevins,AR
US,36.49639138,-93.3973437,Blue Eye,AR
US,35.12910301,-93.71612902,Blue Mountain,AR
US,33.7173885,-93.13472049,Bluff City,AR
US,35.9299195,-89.8804965,Blytheville,AR
US,33.560863,-93.40143399,Bodcaw,AR
US,35.233722,-94.42738551,Bonanza,AR
US,35.9088025,-90.7958555,Bono,AR
US,35.1367165,-93.90855649,Booneville,AR
US,35.41925553,-91.45217307,Bradford,AR
US,33.09905751,-93.65657252,Bradley,AR
US,35.31156,-93.9477335,Branch,AR
US,36.28098749,-92.28476498,Briarcliff,AR
US,34.893906,-91.1777205,Brinkley,AR
US,35.9020235,-90.5801315,Brookland,AR
US,34.6129625,-92.4910915,Bryant,AR
US,33.36443,-93.4323145,Buckner,AR
US,36.367473,-92.596442,Bull Shoals,AR
US,35.8139445,-89.948263,Burdette,AR
US,34.980411,-92.02749,Cabot,AR
US,34.1982955,-93.0603625,Caddo Valley,AR
US,35.0778525,-90.813787,Caldwell,AR
US,33.62223449,-93.23613196,Cale,AR
US,36.1264825,-92.12635999,Calico Rock,AR
US,33.32671751,-92.53571952,Calion,AR
US,33.5706405,-92.8452845,Camden,AR
US,34.78189099,-92.34445197,Cammack Village,AR
US,35.66745,-91.253492,Campbell Station,AR
US,35.7615475,-90.3221335,Caraway,AR
US,34.796199,-91.73199,Carlisle,AR
US,34.07473501,-92.55776202,Carthage,AR
US,35.026988,-93.04473051,Casa,AR
US,35.80133,-90.93191801,Cash,AR
US,35.3008455,-93.87385501,Caulksville,AR
US,35.9468175,-91.54536399,Cave City,AR
US,36.2974655,-94.2067855,Cave Springs,AR
US,35.59313,-94.3426165,Cedarville,AR
US,36.3727615,-94.287166,Centerton,AR
US,35.33492249,-94.22721448,Central City,AR
US,35.2917605,-94.0320225,Charleston,AR
US,36.298614,-91.5398805,Cherokee Village,AR
US,35.40754952,-90.74750404,Cherry Valley,AR
US,35.67727901,-94.17266852,Chester,AR
US,33.7011095,-93.0243655,Chidester,AR
US,34.6944865,-91.30367549,Clarendon,AR
US,35.46096,-93.4522345,Clarksville,AR
US,35.5757365,-92.443669,Clinton,AR
US,35.4361905,-93.6595155,Coal Hill,AR
US,36.12856451,-90.93656253,College City,AR
US,34.701932,-92.22963849,College Station,AR
US,35.131169,-90.811526,Colt,AR
US,35.66351699,-91.83058198,Concord,AR
US,35.0746305,-92.423194,Conway,AR
US,35.069583,-93.422015,Corinth,AR
US,36.409701,-90.58080301,Corning,AR
US,36.285361,-92.51259601,Cotter,AR
US,35.009616,-91.25283,Cotton Plant,AR
US,34.437405,-94.4135485,Cove,AR
US,34.53999615,-91.86456491,Coy,AR
US,35.22403849,-90.32570599,Crawfordsville,AR
US,33.1258275,-91.957345,Crossett,AR
US,35.863801,-91.79277199,Cushman,AR
US,34.23617049,-93.74230448,Daisy,AR
US,35.3659995,-92.40957401,Damascus,AR
US,35.058459,-93.388436,Danville,AR
US,35.22593,-93.162046,Dardanelle,AR
US,36.393689,-90.728658,Datto,AR
US,34.042397,-94.33293501,De Queen,AR
US,34.78582552,-91.45871005,De Valls Bluff,AR
US,34.28866499,-91.33166097,De Witt,AR
US,36.340966,-94.455672,Decatur,AR
US,36.2304815,-90.72565851,Delaplaine,AR
US,34.03068301,-93.50013753,Delight,AR
US,35.86220351,-90.03097753,Dell,AR
US,35.42734248,-93.75436295,Denning,AR
US,33.5298805,-91.42199949,Dermott,AR
US,34.977063,-91.50179051,Des Arc,AR
US,36.46168,-92.91355101,Diamond City,AR
US,35.6470275,-91.24359199,Diaz,AR
US,34.11369999,-94.01232197,Dierks,AR
US,34.23493551,-92.92126852,Donaldson,AR
US,35.4049975,-93.10734,Dover,AR
US,33.882005,-91.47675701,Dumas,AR
US,35.491661,-94.13726899,Dyer,AR
US,35.590034,-90.21424351,Dyess,AR
US,35.278233,-90.4532945,Earle,AR
US,33.60939,-92.73943599,East Camden,AR
US,34.548677,-92.309984,East End,AR
US,35.103289,-90.30699001,Edmondson,AR
US,35.867327,-90.94749399,Egypt,AR
US,33.221616,-92.639629,El Dorado,AR
US,34.307471,-90.8530385,Elaine,AR
US,36.016059,-94.0242495,Elkins,AR
US,36.2031495,-94.2134635,Elm Springs,AR
US,33.09729448,-93.19587046,Emerson,AR
US,33.72105751,-93.46609952,Emmet,AR
US,34.550174,-91.9616655,England,AR
US,35.19202049,-92.20217297,Enola,AR
US,35.7380375,-90.20476051,Etowah,AR
US,33.12122499,-91.26540599,Eudora,AR
US,36.412394,-93.734412,Eureka Springs,AR
US,36.07051351,-91.61784852,Evening Shade,AR
US,36.15421856,-92.90965265,Everton,AR
US,35.6109605,-92.2493715,Fairfield Bay,AR
US,34.9484365,-91.179953,Fargo,AR
US,36.0553225,-94.2501005,Farmington,AR
US,36.0884705,-94.0800615,Fayetteville,AR
US,33.05664149,-92.14747796,Felsenthal,AR
US,35.9671905,-92.2266385,Fifty-Six,AR
US,35.493112,-90.971997,Fisher,AR
US,36.277727,-92.58572699,Flippin,AR
US,33.8191585,-92.4121005,Fordyce,AR
US,33.717859,-94.39329001,Foreman,AR
US,35.019441,-90.778566,Forrest City,AR
US,35.357438,-94.3452335,Fort Smith,AR
US,33.26103749,-93.88655998,Fouke,AR
US,33.35764599,-91.85111596,Fountain Hill,AR
US,34.624907,-92.9141085,Fountain Lake,AR
US,34.99339396,-92.61861388,Fourche,AR
US,36.15039406,-91.78935715,Franklin,AR
US,34.8294255,-91.40789099,Fredonia (Biscoe),AR
US,34.22256452,-93.00068656,Friendship,AR
US,33.61171802,-93.81117555,Fulton,AR
US,36.4638657,-93.972015,Garfield,AR
US,33.3595115,-93.71084449,Garland,AR
US,35.14360699,-91.78198797,Garner,AR
US,36.28096551,-92.48733701,Gassville,AR
US,36.48889993,-93.93650252,Gateway,AR
US,36.26495701,-94.48160251,Gentry,AR
US,35.12688597,-91.45429741,Georgetown,AR
US,34.8929925,-92.2155645,Gibson,AR
US,35.99083653,-92.71538208,Gilbert,AR
US,34.11997701,-91.37428753,Gillett,AR
US,34.16940948,-94.31361745,Gillham,AR
US,35.41277404,-90.27629011,Gilmore,AR
US,34.3333365,-93.545705,Glenwood,AR
US,36.101243,-93.98595,Goshen,AR
US,35.964926,-89.96333601,Gosnell,AR
US,33.987917,-91.56336501,Gould,AR
US,34.07785951,-91.69621503,Grady,AR
US,34.2458685,-94.30351,Grannis,AR
US,34.8713275,-92.17929151,Gravel Ridge,AR
US,36.420456,-94.4554935,Gravette,AR
US,36.33511701,-93.41608551,Green Forest,AR
US,35.2295415,-92.38180349,Greenbrier,AR
US,35.99752051,-94.17282552,Greenland,AR
US,36.34138299,-90.22102398,Greenway,AR
US,35.219839,-94.29602549,Greenwood,AR
US,35.56338,-92.152597,Greers Ferry,AR
US,35.12652452,-91.64547304,Griffithville,AR
US,35.65526051,-91.07076653,Grubbs,AR
US,35.92971249,-91.93869997,Guion,AR
US,34.06528301,-93.09625903,Gum Springs,AR
US,33.91522,-93.14510751,Gurdon,AR
US,35.32465651,-92.33479852,Guy,AR
US,35.18705351,-94.40958401,Hackett,AR
US,33.22391949,-91.79008948,Hamburg,AR
US,33.53082949,-92.46772197,Hampton,AR
US,36.321069,-91.47992249,Hardy,AR
US,33.50989351,-92.40161204,Harrell,AR
US,35.5636405,-90.716237,Harrisburg,AR
US,36.242333,-93.0959375,Harrison,AR
US,35.0198125,-94.3799235,Hartford,AR
US,35.434671,-93.617657,Hartman,AR
US,34.508244,-92.63470949,Haskell,AR
US,34.48788351,-94.38027202,Hatfield,AR
US,35.11086795,-93.52580536,Havana,AR
US,34.89241009,-90.79225975,Haynes,AR
US,34.8287315,-91.49443,Hazen,AR
US,35.5016765,-92.027415,Heber Springs,AR
US,35.45899601,-92.97316302,Hector,AR
US,34.522227,-90.601488,Helena,AR
US,34.50205799,-92.20738848,Hensley,AR
US,33.4502795,-92.1702835,Hermitage,AR
US,35.40438851,-90.98872553,Hickory Ridge,AR
US,35.56564751,-92.20442102,Higden,AR
US,35.19523502,-91.71157905,Higginson,AR
US,36.278437,-94.324029,Highfill,AR
US,36.2659255,-91.522353,Highland,AR
US,36.14623754,-93.86234511,Hindsville,AR
US,35.168073,-92.26789551,Holland,AR
US,34.60439287,-91.18918614,Holly Grove,AR
US,33.658405,-93.56830751,Hope,AR
US,33.94148701,-94.35475702,Horatio,AR
US,36.19901302,-91.7565822,Horseshoe Bend,AR
US,34.91370355,-90.30648363,Horseshoe Lake,AR
US,34.501867,-93.0362275,Hot Springs,AR
US,34.692756,-92.99321,Hot Springs Village,AR
US,35.03484799,-92.68954246,Houston,AR
US,36.042048,-90.97132399,Hoxie,AR
US,34.94845201,-90.46530103,Hughes,AR
US,34.54347049,-91.76171547,Humnoke,AR
US,34.423814,-91.69968301,Humphrey,AR
US,35.05411953,-91.12237858,Hunter,AR
US,35.08126849,-94.26376948,Huntington,AR
US,36.09557148,-93.72754446,Huntsville,AR
US,33.0420715,-92.181532,Huttig,AR
US,36.20221049,-91.17985248,Imboden,AR
US,35.63870503,-91.30721857,Jacksonport,AR
US,34.8790965,-92.1096775,Jacksonville,AR
US,36.011407,-93.186228,Jasper,AR
US,35.162467,-90.410294,Jennette,AR
US,35.28667252,-90.22968055,Jericho,AR
US,33.39699497,-91.47072891,Jerome,AR
US,36.133247,-94.17155949,Johnson,AR
US,35.50798747,-90.14940241,Joiner,AR
US,35.820739,-90.619913,Jonesboro,AR
US,35.2752365,-91.63210401,Judsonia,AR
US,33.01593773,-92.7119633,Junction City,AR
US,35.6696165,-90.095935,Keiser,AR
US,35.23809349,-91.66895297,Kensett,AR
US,34.60590799,-92.00935698,Keo,AR
US,35.423416,-94.2357055,Kibler,AR
US,33.8705425,-92.2906125,Kingsland,AR
US,36.32016447,-90.60100843,Knobel,AR
US,35.38639749,-93.36773499,Knoxville,AR
US,36.212148,-90.50501601,Lafe,AR
US,34.65570199,-90.73215698,LaGrange,AR
US,35.8252565,-90.44571299,Lake City,AR
US,34.425229,-93.08740451,Lake Hamilton,AR
US,34.425138,-90.81262251,Lake View,AR
US,33.3340875,-91.278082,Lake Village,AR
US,36.378623,-92.52953651,Lakeview,AR
US,35.436397,-93.3981045,Lamar,AR
US,35.33628949,-94.17080798,Lavaca,AR
US,35.9381685,-90.251092,Leachville,AR
US,36.4148465,-92.90477249,Lead Hill,AR
US,34.17858332,-92.59160697,Leola,AR
US,35.6081395,-90.33117401,Lepanto,AR
US,35.83255599,-92.55544198,Leslie,AR
US,35.36362256,-91.82978166,Letona,AR
US,33.3646295,-93.5723625,Lewisville,AR
US,34.59656205,-90.74783963,Lexa,AR
US,35.945918,-94.42324849,Lincoln,AR
US,36.3889185,-94.13845401,Little Flock,AR
US,34.7494605,-92.333243,Little Rock,AR
US,33.9712215,-94.168083,Lockesburg,AR
US,35.327726,-93.22643551,London,AR
US,34.790835,-91.892577,Lonoke,AR
US,34.54357756,-92.81168766,Lonsdale,AR
US,33.39153902,-92.79161656,Louann,AR
US,36.266465,-94.12749851,Lowell,AR
US,35.75882601,-89.92788752,Luxora,AR
US,36.003786,-91.244596,Lynn,AR
US,35.02037649,-90.72367549,Madison,AR
US,35.15378199,-93.80795998,Magazine,AR
US,35.70405251,-91.48047753,Magness,AR
US,33.273567,-93.231793,Magnolia,AR
US,34.38507043,-92.80266626,Malvern,AR
US,36.4881625,-91.53597149,Mammoth Spring,AR
US,35.8854395,-90.16318999,Manila,AR
US,35.06463,-94.2323845,Mansfield,AR
US,34.7700745,-90.760016,Marianna,AR
US,35.61382694,-90.08451484,Marie,AR
US,35.22848397,-90.20673793,Marion,AR
US,35.52612915,-90.44167089,Marked Tree,AR
US,36.19044,-90.384354,Marmaduke,AR
US,35.906266,-92.6319855,Marshall,AR
US,34.55626801,-90.90838601,Marvell,AR
US,34.8514945,-92.40445101,Maumelle,AR
US,34.95585007,-92.44411419,Mayflower,AR
US,36.4097535,-90.900328,Maynard,AR
US,34.7943405,-92.190497,McAlmont,AR
US,33.91858453,-93.6414826,McCaskill,AR
US,35.25574701,-91.19095652,McCrory,AR
US,36.43642955,-90.38948863,McDougal,AR
US,33.6248145,-91.3706015,McGehee,AR
US,33.66153751,-93.83125854,McNab,AR
US,33.34151101,-93.20607252,McNeil,AR
US,35.1129575,-91.82266,McRae,AR
US,36.04389396,-91.89800768,Melbourne,AR
US,34.579209,-94.220079,Mena,AR
US,35.146641,-92.55855799,Menifee,AR
US,35.09263,-94.352125,Midland,AR
US,33.8801365,-93.9230255,Mineral Springs,AR
US,35.97658099,-91.03023697,Minturn,AR
US,33.90305048,-91.49776744,Mitchellville,AR
US,35.8974335,-90.341006,Monette,AR
US,33.6358705,-91.7741645,Monticello,AR
US,33.29945151,-91.49690902,Montrose,AR
US,35.76802002,-91.56488554,Moorefield,AR
US,34.79304149,-90.98813198,Moro,AR
US,35.1545985,-92.736624,Morrilton,AR
US,35.38238352,-93.52018155,Morrison Bluff,AR
US,34.55710251,-93.62952602,Mount Ida,AR
US,35.9705805,-91.76960999,Mount Pleasant,AR
US,35.22358347,-92.12405643,Mount Vernon,AR
US,36.36639038,-92.3951677,Mountain Home,AR
US,34.56851499,-93.16628898,Mountain Pine,AR
US,35.88648043,-92.10286738,Mountain View,AR
US,35.642999,-94.16335999,Mountainburg,AR
US,35.504491,-94.0554255,Mulberry,AR
US,34.0612085,-93.6781075,Murfreesboro,AR
US,33.9395475,-93.84660501,Nashville,AR
US,35.70899851,-91.44156602,Newark,AR
US,35.60597098,-91.22340944,Newport,AR
US,36.3063279,-90.09520876,Nimmons,AR
US,36.211186,-92.276562,Norfork,AR
US,34.45526201,-93.67913404,Norman,AR
US,33.31300401,-92.65780402,Norphlet,AR
US,33.1788135,-91.932568,North Crossett,AR
US,34.7914835,-92.176112,North Little Rock,AR
US,36.47917496,-93.42727537,Oak Grove,AR
US,36.13457499,-90.50154048,Oak Grove Heights,AR
US,33.72909908,-93.61868473,Oakhaven,AR
US,34.61953999,-93.78085748,Oden,AR
US,33.58580949,-94.04296847,Ogden,AR
US,35.62938297,-91.46161192,Oil Trough,AR
US,34.00107101,-93.33796153,Okolona,AR
US,35.03122951,-93.21868652,Ola,AR
US,36.45812249,-93.19235747,Omaha,AR
US,35.097831,-92.759971,Oppelo,AR
US,35.7072585,-90.0020985,Osceola,AR
US,36.218124,-91.895668,Oxford,AR
US,33.84772351,-93.71991653,Ozan,AR
US,35.508526,-93.8383405,Ozark,AR
US,34.9686845,-90.904307,Palestine,AR
US,35.42581,-91.839242,Pangburn,AR
US,36.0465705,-90.50075,Paragould,AR
US,35.2863065,-93.698422,Paris,AR
US,33.121114,-91.546538,Parkdale,AR
US,34.6114145,-92.29886051,Parkers-Iron Springs,AR
US,35.2682775,-90.54645899,Parkin,AR
US,33.51091352,-93.56614107,Patmos,AR
US,35.2580075,-91.2283745,Patterson,AR
US,36.45585272,-94.1056315,Pea Ridge,AR
US,36.28131051,-90.66099152,Peach Orchard,AR
US,34.36349099,-92.78042747,Perla,AR
US,35.04470341,-92.79113727,Perry,AR
US,33.6935085,-93.533248,Perrytown,AR
US,35.010324,-92.80523999,Perryville,AR
US,36.3912565,-90.192338,Piggott,AR
US,36.06283649,-92.86222898,Pindall,AR
US,34.2115415,-91.9696805,Pine Bluff,AR
US,36.16045,-92.10485901,Pineville,AR
US,34.4984285,-93.1413295,Piney,AR
US,34.99568102,-93.29793006,Plainview,AR
US,35.555022,-91.629591,Pleasant Plains,AR
US,35.1605145,-92.64011501,Plumerville,AR
US,36.266269,-90.9656115,Pocahontas,AR
US,36.43041702,-90.26640904,Pollard,AR
US,36.08469304,-91.08487811,Portia,AR
US,33.23174147,-91.50701841,Portland,AR
US,35.2410165,-93.0493415,Pottsville,AR
US,36.08307893,-91.11810682,Powhatan,AR
US,34.322892,-92.6420755,Poyen,AR
US,36.345365,-94.05996951,Prairie Creek,AR
US,35.9774805,-94.31798801,Prairie Grove,AR
US,34.31886301,-92.53878052,Prattsville,AR
US,33.8169485,-93.389552,Prescott,AR
US,36.25450301,-92.84370554,Pyatt,AR
US,35.36844,-92.22082149,Quitman,AR
US,35.30500749,-93.88501597,Ratcliff,AR
US,36.239122,-91.24969651,Ravenden,AR
US,36.31268152,-91.22339854,Ravenden Springs,AR
US,33.75010651,-93.09454352,Reader,AR
US,36.2645175,-90.28936301,Rector,AR
US,34.4432025,-92.1801515,Redfield,AR
US,33.70141897,-91.44431193,Reed,AR
US,36.3608485,-90.75868749,Reyno,AR
US,33.94335049,-92.19023947,Rison,AR
US,34.404598,-92.808497,Rockport,AR
US,34.4633635,-93.1226355,Rockwell,AR
US,34.63026153,-91.38594309,Roe,AR
US,36.3374175,-94.1244285,Rogers,AR
US,34.65744101,-90.82080652,Rondo,AR
US,35.3222455,-92.0768915,Rose Bud,AR
US,33.5983635,-93.28740799,Rosston,AR
US,35.52796912,-94.27039082,Rudy,AR
US,35.36312509,-91.50581223,Russell,AR
US,35.31868451,-93.13898254,Russellville,AR
US,34.6300205,-92.550335,Salem,AR
US,36.239889,-92.264331,Salesville,AR
US,34.70327,-92.09653851,Scott,AR
US,35.360748,-93.53936551,Scranton,AR
US,35.233925,-91.716791,Searcy,AR
US,35.97919691,-90.86348128,Sedgwick,AR
US,34.620843,-92.409133,Shannon Hills,AR
US,34.3059855,-92.398439,Sheridan,AR
US,34.38491249,-91.95191148,Sherrill,AR
US,34.8420825,-92.198306,Sherwood,AR
US,35.65451947,-92.31979293,Shirley,AR
US,36.00271649,-91.64844648,Sidney,AR
US,36.179563,-94.5192505,Siloam Springs,AR
US,33.367642,-92.72451849,Smackover,AR
US,36.07835401,-91.29964504,Smithville,AR
US,36.39529153,-92.90600907,South Lead Hill,AR
US,33.91911299,-92.83979398,Sparkman,AR
US,36.1901115,-94.1171535,Springdale,AR
US,36.26107852,-94.42403904,Springtown,AR
US,34.3742045,-91.13877199,St. Charles,AR
US,36.45726899,-90.14266699,St. Francis,AR
US,36.02983051,-92.81325204,St. Joe,AR
US,35.82279901,-93.76421802,St. Paul,AR
US,33.3471775,-93.48837551,Stamps,AR
US,33.94465101,-91.83162702,Star City,AR
US,33.4267005,-93.064807,Stephens,AR
US,35.9659775,-91.310887,Strawberry,AR
US,33.105437,-92.359838,Strong,AR
US,34.47331947,-91.53632442,Stuttgart,AR
US,35.2970395,-93.6353665,Subiaco,AR
US,36.45576394,-90.72345035,Success,AR
US,35.75160151,-91.49201801,Sulphur Rock,AR
US,36.48609757,-94.45918597,Sulphur Springs,AR
US,36.25275049,-92.68423748,Summit,AR
US,35.2233511,-90.20463826,Sunset,AR
US,34.6677885,-92.2437245,Sweet Home,AR
US,35.82468449,-91.12724698,Swifton,AR
US,33.10308291,-93.45700326,Taylor,AR
US,33.5109942,-94.01510967,Texarkana,AR
US,33.776879,-92.47972649,Thornton,AR
US,33.70949803,-91.44789809,Tillar,AR
US,33.62931449,-92.35217146,Tinsman,AR
US,33.81788252,-93.89936505,Tollette,AR
US,36.175088,-94.23263349,Tontitown,AR
US,34.450743,-92.665441,Traskwood,AR
US,35.672869,-90.518213,Trumann,AR
US,35.726642,-91.2027845,Tuckerman,AR
US,34.4430155,-92.5783,Tull,AR
US,35.39185504,-91.23004609,Tupelo,AR
US,35.379271,-90.26350351,Turrell,AR
US,35.323324,-92.41385251,Twin Groves,AR
US,35.48746901,-90.35756603,Tyronza,AR
US,34.57621352,-91.46168356,Ulm,AR
US,36.15418951,-92.98906802,Valley Springs,AR
US,35.4552645,-94.3267675,Van Buren,AR
US,34.38033797,-94.36292942,Vandervoort,AR
US,35.75828547,-90.05726493,Victoria,AR
US,35.079198,-92.19188899,Vilonia,AR
US,36.394831,-91.9841435,Viola,AR
US,34.36014403,-91.79080058,Wabbaseka,AR
US,35.56538652,-90.93333705,Waldenburg,AR
US,33.351391,-93.28365999,Waldo,AR
US,34.902907,-94.0796595,Waldron,AR
US,36.0882795,-90.94451,Walnut Ridge,AR
US,35.01050349,-91.94706049,Ward,AR
US,33.612818,-92.052861,Warren,AR
US,33.773092,-93.68327849,Washington,AR
US,33.89490098,-91.25595445,Watson,AR
US,35.6196975,-90.90177199,Weiner,AR
US,35.44669998,-91.23119946,Weldon,AR
US,33.137723,-92.0142405,West Crossett,AR
US,35.95489487,-94.19063815,West Fork,AR
US,34.52516115,-90.6337324,West Helena,AR
US,35.1540715,-90.168575,West Memphis,AR
US,35.20201248,-91.60635144,West Point,AR
US,36.10099351,-92.95445752,Western Grove,AR
US,34.914239,-91.09753649,Wheatley,AR
US,33.83501949,-93.12586446,Whelen Springs,AR
US,34.272054,-92.083058,White Hall,AR
US,34.3021085,-94.3334,Wickes,AR
US,35.02075747,-90.68042543,Widener,AR
US,35.4799605,-93.7508,Wiederkehr Village,AR
US,36.25200354,-91.36046911,Williford,AR
US,33.51786449,-93.29027849,Willisville,AR
US,33.62610601,-91.92079852,Wilmar,AR
US,33.0576485,-91.57656401,Wilmot,AR
US,35.5668225,-90.04101549,Wilson,AR
US,33.73953052,-94.14511207,Wilton,AR
US,33.7733225,-91.47357901,Winchester,AR
US,35.80704299,-94.12782098,Winslow,AR
US,33.83049001,-94.34990752,Winthrop,AR
US,34.539782,-92.2217335,Woodson,AR
US,35.200989,-92.44920801,Wooster,AR
US,34.6131685,-92.21068249,Wrightsville,AR
US,35.21893163,-90.82878047,Wynne,AR
US,36.2286465,-92.685946,Yellville,AR
US,36.282831,-92.916154,Zinc,AR
US,32.3825075,-112.8623155,Ajo,AZ
US,33.021648,-112.08258,Ak-Chin Village,AZ
US,31.695904,-111.0591035,Amado,AZ
US,33.4002765,-111.530401,Apache Junction,AZ
US,32.748585,-111.6541925,Arizona City,AZ
US,34.85891948,-114.5890419,Arizona Village,AZ
US,35.213796,-112.487467,Ash Fork,AZ
US,33.3853835,-112.315331,Avondale,AZ
US,32.4235015,-111.3380655,Avra Valley,AZ
US,34.577845,-113.1700325,Bagdad,AZ
US,31.956098,-110.300615,Benson,AZ
US,34.777039,-111.740376,Big Park,AZ
US,31.4321775,-109.9039455,Bisbee,AZ
US,36.618127,-111.6296795,Bitter Springs,AZ
US,34.073077,-112.0864385,Black Canyon City,AZ
US,33.0340505,-111.6084355,Blackwater,AZ
US,34.17088451,-114.2634765,Bluewater,AZ
US,33.935161,-114.0079165,Bouse,AZ
US,33.4388855,-112.602151,Buckeye,AZ
US,35.117963,-114.5600955,Bullhead City,AZ
US,35.7598255,-109.616848,Burnside,AZ
US,35.8590945,-111.405879,Cameron,AZ
US,34.5709925,-111.8367405,Camp Verde,AZ
US,33.78996201,-110.0145085,Canyon Day,AZ
US,33.828274,-111.900974,Carefree,AZ
US,32.88074,-111.728897,Casa Grande,AZ
US,32.3471735,-110.9948595,Casas Adobes,AZ
US,32.482072,-110.89419,Catalina,AZ
US,32.302724,-110.879798,Catalina Foothills,AZ
US,33.8500915,-111.954342,Cave Creek,AZ
US,33.399156,-110.813096,Central Heights-Midland City,AZ
US,33.2263155,-111.804531,Chandler,AZ
US,36.5038925,-110.041637,Chilchinbito,AZ
US,36.153468,-109.556131,Chinle,AZ
US,34.776892,-112.426859,Chino Valley,AZ
US,32.739208,-111.8004585,Chuichu,AZ
US,34.0337965,-110.4737775,Cibecue,AZ
US,33.360453,-114.6676455,Cibola,AZ
US,34.767985,-112.039231,Clarkdale,AZ
US,33.40655151,-110.842068,Claypool,AZ
US,33.0245815,-109.288653,Clifton,AZ
US,36.98698677,-112.95606,Colorado City,AZ
US,34.156973,-112.842176,Congress,AZ
US,32.977469,-111.528181,Coolidge,AZ
US,34.3086115,-112.098371,Cordes Lakes,AZ
US,34.7470495,-111.9069745,Cornville,AZ
US,31.94855901,-110.7638615,Corona de Tucson,AZ
US,34.7018795,-111.9923315,Cottonwood,AZ
US,34.68480552,-112.0055925,Cottonwood-Verde Village,AZ
US,36.818094,-109.8815355,Dennehotso,AZ
US,34.554735,-114.369123,Desert Hills,AZ
US,34.531174,-112.2202025,Dewey-Humboldt,AZ
US,35.3656105,-110.305768,Dilkon,AZ
US,35.5968525,-114.256984,Dolan Springs,AZ
US,31.35633066,-109.5342382,Douglas,AZ
US,32.1410275,-111.045623,Drexel Heights,AZ
US,32.1459155,-110.898294,Drexel-Alvernon,AZ
US,32.9083325,-110.741703,Dudleyville,AZ
US,32.733628,-109.0956475,Duncan,AZ
US,34.103507,-109.2903475,Eagar,AZ
US,33.808896,-109.91078,East Fork,AZ
US,31.942015,-110.9121055,East Sahuarita,AZ
US,33.621528,-114.479778,Ehrenberg,AZ
US,33.60359851,-112.31398,El Mirage,AZ
US,31.644326,-110.536284,Elgin,AZ
US,32.766569,-111.653933,Eloy,AZ
US,35.8251755,-110.3580975,First Mesa,AZ
US,35.217315,-111.5869795,Flagstaff,AZ
US,33.047409,-111.3657795,Florence,AZ
US,32.2974375,-111.0087855,Flowing Wells,AZ
US,35.7538315,-109.0662666,Fort Defiance,AZ
US,32.6856685,-114.381235,Fortuna Foothills,AZ
US,33.6038285,-111.7435465,Fountain Hills,AZ
US,36.962903,-112.52674,Fredonia,AZ
US,32.556212,-114.7825381,Gadsden,AZ
US,35.698857,-109.5387005,Ganado,AZ
US,32.956521,-112.6839975,Gila Bend,AZ
US,33.32146892,-111.7104312,Gilbert,AZ
US,34.105231,-111.284653,Gisela,AZ
US,33.602874,-112.3064205,Glendale,AZ
US,33.383827,-110.7542065,Globe,AZ
US,33.3711485,-111.4406015,Gold Camp,AZ
US,35.22152,-114.154889,Golden Valley,AZ
US,33.36832349,-112.348101,Goodyear,AZ
US,36.045799,-112.1267785,Grand Canyon Village,AZ
US,35.531679,-109.845388,Greasewood,AZ
US,31.850786,-111.001882,Green Valley,AZ
US,33.36714599,-111.962879,Guadalupe,AZ
US,33.00039601,-110.783752,Hayden,AZ
US,34.417414,-110.579598,Heber-Overgaard,AZ
US,34.90664,-110.1622535,Holbrook,AZ
US,35.9268055,-110.644676,Hotevilla-Bacavi,AZ
US,35.269614,-109.190737,Houck,AZ
US,31.63037651,-110.331116,Huachuca City,AZ
US,35.7652715,-110.1112715,Jeddito,AZ
US,34.74811951,-112.1069935,Jerome,AZ
US,35.09605801,-111.6927255,Kachina Village,AZ
US,36.948647,-112.531557,Kaibab,AZ
US,36.5753715,-111.0899955,Kaibito,AZ
US,36.7096845,-110.255406,Kayenta,AZ
US,35.8126095,-110.1735855,Keams Canyon,AZ
US,33.059647,-110.9082005,Kearny,AZ
US,35.230488,-113.9910415,Kingman,AZ
US,35.860255,-110.612139,Kykotsmovi Village,AZ
US,34.5099395,-114.3069495,Lake Havasu City,AZ
US,34.6422485,-111.7938395,Lake Montezuma,AZ
US,36.900784,-111.409506,Lechee,AZ
US,35.289459,-111.009438,Leupp,AZ
US,33.5002505,-112.3434415,Litchfield Park,AZ
US,32.13067952,-110.8781436,Littletown,AZ
US,36.415078,-109.2413025,Lukachukai,AZ
US,32.7221055,-110.642783,Mammoth,AZ
US,36.3502255,-109.62917,Many Farms,AZ
US,32.433247,-111.15269,Marana,AZ
US,33.057902,-112.0475475,Maricopa,AZ
US,34.425562,-112.2188125,Mayer,AZ
US,34.089186,-109.8419775,McNary,AZ
US,33.364224,-111.702588,Mesa,AZ
US,34.96050849,-114.570928,Mesquite Creek,AZ
US,33.3931895,-110.8754815,Miami,AZ
US,36.1124525,-111.2187385,Moenkopi,AZ
US,35.05240853,-114.5715006,Mohave Valley,AZ
US,34.94600302,-114.5890681,Mojave Ranch Estates,AZ
US,33.05122851,-109.330172,Morenci,AZ
US,35.0943385,-111.627807,Mountainaire,AZ
US,34.939866,-111.6161685,Munds Park,AZ
US,31.34212291,-109.9254115,Naco,AZ
US,35.9166765,-109.456922,Nazlini,AZ
US,35.2740325,-114.005786,New Kingman-Butler,AZ
US,33.8871985,-112.0613235,New River,AZ
US,31.384517,-110.933559,Nogales,AZ
US,36.98122818,-110.1432755,Oljato-Monument Valley,AZ
US,32.609431,-110.775892,Oracle,AZ
US,32.4211655,-110.969782,Oro Valley,AZ
US,36.897124,-111.4678055,Page,AZ
US,33.5424775,-111.9515505,Paradise Valley,AZ
US,34.021455,-114.216099,Parker,AZ
US,34.240285,-114.14406,Parker Strip,AZ
US,35.297389,-111.934823,Parks,AZ
US,31.54350901,-110.7466425,Patagonia,AZ
US,34.875865,-112.471225,Paulden,AZ
US,34.2430995,-111.3218505,Payson,AZ
US,35.524263,-113.4315835,Peach Springs,AZ
US,34.270559,-112.765577,Peeples Valley,AZ
US,33.728628,-112.233551,Peoria,AZ
US,33.3010605,-110.456077,Peridot,AZ
US,33.30403723,-111.9716004,Phoenix,AZ
US,32.3542735,-111.186545,Picture Rocks,AZ
US,32.8928145,-109.8307815,Pima,AZ
US,34.410339,-111.42308,Pine,AZ
US,34.1538225,-109.9455665,Pinetop-Lakeside,AZ
US,36.0980035,-110.2152755,Pinon,AZ
US,31.36154451,-109.561159,Pirtleville,AZ
US,32.03782,-112.3225365,Pisinemo,AZ
US,33.991145,-114.396806,Poston,AZ
US,34.59146,-112.434663,Prescott,AZ
US,34.6219515,-112.289972,Prescott Valley,AZ
US,33.667496,-114.216787,Quartzsite,AZ
US,33.2237425,-111.597041,Queen Creek,AZ
US,33.283194,-111.3030385,Queen Valley,AZ
US,36.9650225,-109.357709,Red Mesa,AZ
US,31.542871,-110.94828,Rio Rico Northeast,AZ
US,31.504164,-111.0410415,Rio Rico Northwest,AZ
US,31.4580505,-110.9239495,Rio Rico Southeast,AZ
US,31.445755,-111.014697,Rio Rico Southwest,AZ
US,33.7254865,-111.6674345,Rio Verde,AZ
US,36.7150125,-109.620887,Rock Point,AZ
US,36.4123045,-109.8470035,Rough Rock,AZ
US,36.5007325,-109.4642825,Round Rock,AZ
US,33.083605,-111.7463575,Sacaton,AZ
US,32.7650115,-109.680075,Safford,AZ
US,31.924752,-110.965076,Sahuarita,AZ
US,33.7781625,-113.5850835,Salome,AZ
US,33.3506715,-110.4525875,San Carlos,AZ
US,32.481953,-114.722483,San Luis,AZ
US,32.619273,-110.614673,San Manuel,AZ
US,32.3412985,-112.040282,Santa Rosa,AZ
US,33.146674,-111.795927,Santan,AZ
US,35.892982,-109.1395595,Sawmill,AZ
US,33.6537285,-111.858291,Scottsdale,AZ
US,35.834087,-110.489381,Second Mesa,AZ
US,34.851943,-111.7697085,Sedona,AZ
US,35.3259365,-112.8473305,Seligman,AZ
US,31.918815,-111.8843905,Sells,AZ
US,35.8263785,-110.5326705,Shongopovi,AZ
US,36.5867095,-110.6627165,Shonto,AZ
US,34.21866,-110.0115965,Show Low,AZ
US,31.5738615,-110.251873,Sierra Vista,AZ
US,31.54838115,-110.263673,Sierra Vista Southeast,AZ
US,34.5226645,-110.061936,Snowflake,AZ
US,32.59668001,-114.7097005,Somerton,AZ
US,31.6721275,-110.6347095,Sonoita,AZ
US,32.19442602,-110.9643466,South Tucson,AZ
US,34.350822,-112.127453,Spring Valley,AZ
US,34.1592015,-109.274525,Springerville,AZ
US,31.893349,-110.219608,St. David,AZ
US,34.50838299,-109.360871,St. Johns,AZ
US,35.6602405,-109.0887855,St. Michaels,AZ
US,32.8792425,-111.9635525,Stanfield,AZ
US,35.75269,-109.839444,Steamboat,AZ
US,34.4244615,-111.5008575,Strawberry,AZ
US,32.0529725,-110.9437925,Summit,AZ
US,33.6159095,-112.272088,Sun City,AZ
US,33.667389,-112.359268,Sun City West,AZ
US,33.2181695,-111.87594,Sun Lakes,AZ
US,34.24745,-111.2450575,Sun Valley,AZ
US,36.221248,-112.6870485,Supai,AZ
US,33.2859955,-111.113461,Superior,AZ
US,33.6885765,-112.5032375,Surprise,AZ
US,32.7348925,-109.7117695,Swift Trail Junction,AZ
US,32.70560949,-113.961842,Tacna,AZ
US,32.2648755,-110.7387135,Tanque Verde,AZ
US,34.438564,-110.096278,Taylor,AZ
US,36.91885852,-109.0810398,Teec Nos Pos,AZ
US,33.389196,-111.9136285,Tempe,AZ
US,32.838812,-109.7544085,Thatcher,AZ
US,32.047312,-111.2794195,Three Points,AZ
US,33.4512295,-112.2459315,Tolleson,AZ
US,31.71658,-110.0494805,Tombstone,AZ
US,36.337101,-110.9628975,Tonalea,AZ
US,33.8412625,-111.2701875,Tonto Basin,AZ
US,33.3522915,-110.9773945,Top-of-the-World,AZ
US,32.4198915,-111.0418765,Tortolita,AZ
US,36.308818,-109.2083,Tsaile,AZ
US,36.126532,-111.23694,Tuba City,AZ
US,31.63855,-111.0545425,Tubac,AZ
US,32.1770445,-110.8772045,Tucson,AZ
US,32.2191125,-111.129543,Tucson Estates,AZ
US,31.567648,-111.0377855,Tumacacori-Carmen,AZ
US,35.9762365,-112.114075,Tusayan,AZ
US,32.006904,-110.6795515,Vail,AZ
US,32.137156,-111.0883915,Valencia West,AZ
US,32.66725799,-114.1293805,Wellton,AZ
US,33.833617,-113.520486,Wenden,AZ
US,31.7038615,-110.3420135,Whetstone,AZ
US,33.860861,-109.947142,Whiteriver,AZ
US,33.9661905,-112.741652,Wickenburg,AZ
US,34.4040955,-112.6087925,Wilhoit,AZ
US,32.251693,-109.824601,Willcox,AZ
US,35.2301615,-112.176853,Williams,AZ
US,34.6956225,-112.4959705,Williamson,AZ
US,34.9168105,-114.606571,Willow Valley,AZ
US,35.66802049,-109.0612166,Window Rock,AZ
US,32.99035704,-110.7702641,Winkelman,AZ
US,35.0293595,-110.7019855,Winslow,AZ
US,35.0347055,-110.7482915,Winslow West,AZ
US,34.223972,-112.7623615,Yarnell,AZ
US,34.118536,-110.925841,Young,AZ
US,33.5853455,-112.3054135,Youngtown,AZ
US,32.69735293,-114.580535,Yuma,AZ
US,34.4841945,-118.1777225,Acton,CA
US,34.58498374,-117.3358515,Adelanto,CA
US,34.1503125,-118.754038,Agoura Hills,CA
US,37.756557,-122.268125,Alameda,CA
US,37.8669745,-121.9702355,Alamo,CA
US,37.890425,-122.28953,Albany,CA
US,34.088709,-118.1220525,Alhambra,CA
US,33.582199,-117.716765,Aliso Viejo,CA
US,40.2143335,-121.171757,Almanor,CA
US,33.8894705,-118.3350595,Alondra Park,CA
US,35.88775802,-119.4872111,Alpaugh,CA
US,32.8439275,-116.7394955,Alpine,CA
US,38.787004,-119.7946195,Alpine Village,CA
US,39.1204245,-121.0457225,Alta Sierra,CA
US,34.193879,-118.1364885,Altadena,CA
US,41.48549353,-120.5343001,Alturas,CA
US,37.369764,-121.8271625,Alum Rock,CA
US,38.41734617,-120.824133,Amador City,CA
US,38.17984951,-122.2448155,American Canyon,CA
US,36.95605146,-121.7702424,Amesti,CA
US,33.8329745,-117.8251485,Anaheim,CA
US,40.4465755,-122.279202,Anderson,CA
US,38.06672951,-120.536548,Angels City,CA
US,38.586468,-122.452886,Angwin,CA
US,37.9837715,-121.7813905,Antioch,CA
US,34.53753,-117.197996,Apple Valley,CA
US,36.994167,-121.884828,Aptos,CA
US,36.966151,-121.8262645,Aptos Hills-Larkin Valley,CA
US,39.02063996,-122.0574199,Arbuckle,CA
US,34.1334065,-118.011549,Arcadia,CA
US,40.8698515,-124.061276,Arcata,CA
US,38.6041905,-121.364984,Arden-Arcade,CA
US,36.3158985,-119.697943,Armona,CA
US,38.2423345,-120.34383,Arnold,CA
US,36.876171,-121.6251715,Aromas,CA
US,35.1229705,-120.577633,Arroyo Grande,CA
US,33.86691451,-118.0785985,Artesia,CA
US,35.2000725,-118.8198135,Arvin,CA
US,37.6966805,-122.1113745,Ashland,CA
US,35.487592,-120.66438,Atascadero,CA
US,37.449788,-122.198276,Atherton,CA
US,37.3549945,-120.5849,Atwater,CA
US,37.0910345,-119.454107,Auberry,CA
US,38.88821787,-121.1059606,Auburn,CA
US,37.9666992,-121.2685625,August,CA
US,33.34581107,-118.326513,Avalon,CA
US,36.02922,-120.0916205,Avenal,CA
US,38.190243,-120.366747,Avery,CA
US,34.0420595,-117.9868485,Avocado Heights,CA
US,34.10882991,-117.8932707,Azusa,CA
US,35.33226274,-119.0136077,Bakersfield,CA
US,34.0847585,-117.9560905,Baldwin Park,CA
US,33.968718,-116.8857695,Banning,CA
US,34.875496,-117.01654,Barstow,CA
US,38.0350295,-121.959976,Bay Point,CA
US,40.76587501,-124.179538,Bayview,CA
US,38.00197201,-122.3253045,Bayview-Montalvin,CA
US,35.33474293,-120.838913,Baywood-Los Osos,CA
US,39.11109,-121.346579,Beale AFB,CA
US,38.4699,-120.0451555,Bear Valley,CA
US,35.169566,-118.613937,Bear Valley Springs,CA
US,33.894671,-116.957516,Beaumont,CA
US,39.863981,-120.4243535,Beckwourth,CA
US,40.00651553,-121.2465416,Belden,CA
US,33.9771635,-118.175883,Bell,CA
US,33.968858,-118.1397025,Bell Gardens,CA
US,33.8876145,-118.1292505,Bellflower,CA
US,37.51613451,-122.28161,Belmont,CA
US,37.87762596,-122.4642834,Belvedere,CA
US,37.0753975,-122.0812165,Ben Lomond,CA
US,38.0715075,-122.1346525,Benicia,CA
US,37.8780255,-122.2529295,Berkeley,CA
US,33.743493,-116.283737,Bermuda Dunes,CA
US,41.75296287,-124.1673665,Bertsch-Oceanview,CA
US,38.0296775,-121.634371,Bethel Island,CA
US,34.084651,-118.387138,Beverly Hills,CA
US,34.2676145,-116.829671,Big Bear City,CA
US,34.244769,-116.902617,Big Bear Lake,CA
US,41.01231,-121.927596,Big Bend,CA
US,37.16750149,-118.287183,Big Pine,CA
US,34.137419,-114.350189,Big River,CA
US,39.41436965,-121.705809,Biggs,CA
US,36.80048841,-120.0217987,Biola,CA
US,37.36652199,-118.3892345,Bishop,CA
US,38.119919,-122.515989,Black Point-Green Point,CA
US,37.8215855,-121.9073685,Blackhawk-Camino Tassajara,CA
US,39.7753825,-120.6094835,Blairsden,CA
US,34.060912,-117.393382,Bloomington,CA
US,40.86830108,-123.9681118,Blue Lake,CA
US,34.179452,-114.2609146,Bluewater,CA
US,33.6350705,-114.5833532,Blythe,CA
US,38.32135302,-123.020686,Bodega Bay,CA
US,35.5688995,-118.4614835,Bodfish,CA
US,37.90782249,-122.6962738,Bolinas,CA
US,33.35948151,-115.732001,Bombay Beach,CA
US,36.966787,-119.875838,Bonadelle Ranchos-Madera Ranchos,CA
US,32.6702815,-117.017539,Bonita,CA
US,33.276324,-117.183176,Bonsall,CA
US,37.48336,-119.874645,Bootjack,CA
US,35.018828,-117.667845,Boron,CA
US,36.70061905,-121.6702977,Boronda,CA
US,33.250629,-116.3379605,Borrego Springs,CA
US,32.8187,-116.9397595,Bostonia,CA
US,37.1429455,-122.1183155,Boulder Creek,CA
US,36.60894895,-119.7522218,Bowles,CA
US,38.31571352,-122.4872916,Boyes Hot Springs,CA
US,34.15418,-117.9642475,Bradbury,CA
US,35.86380091,-120.8020214,Bradley,CA
US,33.01980182,-115.5157786,Brawley,CA
US,33.926161,-117.850938,Brea,CA
US,37.95197501,-121.7098065,Brentwood,CA
US,37.60336351,-121.007825,Bret Harte,CA
US,37.686332,-122.3957642,Brisbane,CA
US,37.69266893,-122.4756153,Broadmoor,CA
US,39.8775745,-121.1622035,Bucks Lake,CA
US,34.61839745,-120.1829668,Buellton,CA
US,33.859079,-117.996595,Buena Park,CA
US,37.32104736,-121.9165021,Buena Vista,CA
US,34.180333,-118.31596,Burbank,CA
US,37.58668269,-122.360232,Burlingame,CA
US,40.891017,-121.6545215,Burney,CA
US,35.4184535,-119.430954,Buttonwillow,CA
US,37.873325,-121.6284485,Byron,CA
US,37.62248152,-120.963845,Bystrom,CA
US,39.76427701,-120.5683195,C-Road,CA
US,33.911059,-116.77189,Cabazon,CA
US,34.1413905,-118.654539,Calabasas,CA
US,32.68186102,-115.5038075,Calexico,CA
US,35.17355,-117.7551325,California City,CA
US,33.9796725,-117.014292,Calimesa,CA
US,33.14381856,-115.5495032,Calipatria,CA
US,38.58325699,-122.5762435,Calistoga,CA
US,36.68114897,-119.7314729,Calwa,CA
US,34.241634,-119.0568955,Camarillo,CA
US,35.573183,-121.09909,Cambria,CA
US,37.25634308,-121.9259163,Cambrian Park,CA
US,38.6818945,-120.9950085,Cameron Park,CA
US,33.3219215,-117.310686,Camp Pendleton North,CA
US,33.2277255,-117.3752489,Camp Pendleton South,CA
US,37.2821925,-121.946852,Campbell,CA
US,36.50113301,-120.3162495,Cantua Creek,CA
US,33.69257,-117.249711,Canyon Lake,CA
US,40.168818,-121.075878,Canyondam,CA
US,36.97459848,-121.9506199,Capitola,CA
US,40.07686954,-121.1608906,Caribou,CA
US,33.121783,-117.271667,Carlsbad,CA
US,36.4833285,-121.703775,Carmel Valley Village,CA
US,36.55279095,-121.9174043,Carmel-by-the-Sea,CA
US,38.627204,-121.3187115,Carmichael,CA
US,34.404494,-119.521951,Carpinteria,CA
US,41.44786136,-122.3640256,Carrick,CA
US,33.8468165,-118.233504,Carson,CA
US,36.3166195,-118.021546,Cartago,CA
US,36.53999901,-119.844824,Caruthers,CA
US,34.18739605,-118.9442872,Casa Conejo,CA
US,32.765753,-116.966884,Casa de Oro-Mount Helix,CA
US,37.7089795,-122.062423,Castro Valley,CA
US,36.76284553,-121.7483101,Castroville,CA
US,33.8226045,-116.4611895,Cathedral City,CA
US,35.43694241,-120.876259,Cayucos,CA
US,37.60113199,-120.951738,Ceres,CA
US,33.8668835,-118.0688485,Cerritos,CA
US,39.4585375,-121.248223,Challenge-Brownsville,CA
US,34.15435749,-119.2173945,Channel Islands Beach,CA
US,34.10120849,-117.8533435,Charter Oak,CA
US,33.9814145,-116.955808,Cherry Valley,CA
US,37.67823048,-122.0957109,Cherryland,CA
US,40.30332651,-121.2183005,Chester,CA
US,39.74459009,-121.8519311,Chico,CA
US,39.8089515,-120.1279475,Chilcoot-Vinton,CA
US,35.63767,-117.765632,China Lake Acres,CA
US,37.86865347,-120.4406749,Chinese Camp,CA
US,33.9882125,-117.680844,Chino,CA
US,33.9489755,-117.707121,Chino Hills,CA
US,37.1188265,-120.242743,Chowchilla,CA
US,36.570888,-121.50961,Chualar,CA
US,32.623402,-117.0246095,Chula Vista,CA
US,34.116219,-117.8886025,Citrus,CA
US,38.6934415,-121.2765605,Citrus Heights,CA
US,34.122152,-117.7083495,Claremont,CA
US,37.9378615,-121.934043,Clayton,CA
US,38.9603875,-122.631237,Clearlake,CA
US,39.017387,-122.65529,Clearlake Oaks,CA
US,39.74907101,-120.575682,Clio,CA
US,38.77746489,-122.9933392,Cloverdale,CA
US,36.94102154,-119.6867491,Clovis,CA
US,38.02572552,-122.0280941,Clyde,CA
US,33.684394,-116.1295785,Coachella,CA
US,36.1544465,-120.340546,Coalinga,CA
US,38.833122,-122.7183745,Cobb,CA
US,39.09513201,-120.953483,Colfax,CA
US,37.67678249,-122.4479175,Colma,CA
US,34.057163,-117.3015165,Colton,CA
US,38.0351195,-120.4014625,Columbia,CA
US,39.20352599,-122.001535,Colusa,CA
US,33.995148,-118.1373525,Commerce,CA
US,33.8957925,-118.202254,Compton,CA
US,37.973476,-121.978096,Concord,CA
US,39.7434305,-121.5173215,Concow,CA
US,37.942428,-120.60262,Copperopolis,CA
US,36.08176731,-119.5782384,Corcoran,CA
US,39.9249745,-122.1767695,Corning,CA
US,33.8732,-117.537241,Corona,CA
US,32.646028,-117.152557,Coronado,CA
US,37.0036,-121.774612,Corralitos,CA
US,37.9249245,-122.506838,Corte Madera,CA
US,33.673269,-117.8924945,Costa Mesa,CA
US,38.3293645,-122.7055985,Cotati,CA
US,33.600388,-117.586241,Coto de Caza,CA
US,40.391575,-122.2807165,Cottonwood,CA
US,37.97182298,-121.3289079,Country Club,CA
US,39.8023165,-123.2364715,Covelo,CA
US,34.091009,-117.863644,Covina,CA
US,41.75466997,-124.1902535,Crescent City,CA
US,41.7679665,-124.2180275,Crescent City North,CA
US,40.1046385,-120.9180085,Crescent Mills,CA
US,32.8031015,-116.8549575,Crest,CA
US,34.2469105,-117.2740075,Crestline,CA
US,38.0319205,-122.209478,Crockett,CA
US,39.8708875,-120.6685585,Cromberg,CA
US,33.963864,-118.185225,Cudahy,CA
US,34.0060405,-118.38876,Culver City,CA
US,37.31311,-122.064628,Cupertino,CA
US,36.52473047,-119.2913424,Cutler,CA
US,40.764421,-124.1434755,Cutten,CA
US,33.822715,-118.034946,Cypress,CA
US,37.695209,-122.4375925,Daly City,CA
US,33.476675,-117.689781,Dana Point,CA
US,37.8133175,-121.9392255,Danville,CA
US,36.26906199,-117.585754,Darwin,CA
US,38.5569725,-121.712062,Davis,CA
US,37.024849,-121.844165,Day Valley,CA
US,38.53505751,-122.4620905,Deer Park,CA
US,33.91696402,-118.3655086,Del Aire,CA
US,32.96422,-117.26266,Del Mar,CA
US,36.5952455,-121.9272155,Del Monte Forest,CA
US,36.65599998,-119.5978899,Del Rey,CA
US,36.59050948,-121.8396564,Del Rey Oaks,CA
US,37.747452,-121.0117965,Del Rio,CA
US,35.74515656,-119.2626657,Delano,CA
US,37.4367465,-120.767339,Delhi,CA
US,39.8139585,-120.4871745,Delleker,CA
US,37.5288205,-120.8007455,Denair,CA
US,35.24491949,-119.5858165,Derby Acres,CA
US,33.976156,-116.5093865,Desert Hot Springs,CA
US,33.404969,-116.040173,Desert Shores,CA
US,34.58996101,-118.1541065,Desert View Highlands,CA
US,37.83997399,-121.9627205,Diablo,CA
US,34.00011,-117.8132385,Diamond Bar,CA
US,38.679777,-120.8085805,Diamond Springs,CA
US,38.2477455,-122.9559875,Dillon Beach,CA
US,36.5467845,-119.383221,Dinuba,CA
US,37.9233335,-121.590362,Discovery Bay,CA
US,38.39462911,-121.8091523,Dixon,CA
US,37.38664548,-118.4013774,Dixon Lane-Meadow Creek,CA
US,39.18925549,-120.108502,Dollar Point,CA
US,38.2933955,-120.2712865,Dorrington,CA
US,41.96668252,-121.9189301,Dorris,CA
US,36.98970545,-120.6824558,Dos Palos,CA
US,33.9376865,-118.1217285,Downey,CA
US,34.159666,-117.951151,Duarte,CA
US,37.717935,-121.89144,Dublin,CA
US,35.89318399,-119.043107,Ducor,CA
US,41.2355285,-122.265979,Dunsmuir,CA
US,39.625835,-121.7512305,Durham,CA
US,35.2158955,-119.3750065,Dustin Acres,CA
US,35.88091445,-119.2659568,Earlimart,CA
US,33.59815554,-114.5812061,East Blythe,CA
US,33.89806499,-118.194903,East Compton,CA
US,37.382039,-121.8092135,East Foothills,CA
US,33.736787,-116.9410065,East Hemet,CA
US,33.92456301,-117.985246,East La Mirada,CA
US,34.035116,-118.1513035,East Los Angeles,CA
US,37.780372,-120.792161,East Oakdale,CA
US,36.54803698,-119.2599689,East Orosi,CA
US,37.46825349,-122.128257,East Palo Alto,CA
US,34.13850651,-118.080997,East Pasadena,CA
US,36.05351602,-119.0121416,East Porterville,CA
US,39.9170095,-120.9060795,East Quincy,CA
US,37.94547343,-122.3092803,East Richmond Heights,CA
US,34.1172095,-118.079026,East San Gabriel,CA
US,40.2377705,-121.076671,East Shore,CA
US,37.97792399,-120.32907,East Sonora,CA
US,36.65229898,-119.7816244,Easton,CA
US,41.45863997,-122.4240894,Edgewood,CA
US,34.9006615,-117.9142765,Edwards AFB,CA
US,32.791026,-116.961822,El Cajon,CA
US,32.81601173,-115.5824465,El Centro,CA
US,37.91802451,-122.2981305,El Cerrito,CA
US,38.690063,-121.0510465,El Dorado Hills,CA
US,37.505535,-122.471845,El Granada,CA
US,34.071209,-118.0289,El Monte,CA
US,35.633144,-120.65328,El Paso de Robles (Paso Robles),CA
US,34.2439875,-119.15578,El Rio,CA
US,33.9163625,-118.3934085,El Segundo,CA
US,37.97082249,-122.250479,El Sobrante,CA
US,38.30141396,-122.4855434,El Verano,CA
US,38.337569,-122.5077095,Eldridge,CA
US,38.4290695,-121.380712,Elk Grove,CA
US,36.81243,-121.7147585,Elkhorn,CA
US,38.35275995,-121.9060744,Elmira,CA
US,37.46668746,-122.2589774,Emerald Lake Hills,CA
US,37.84222604,-122.2828301,Emeryville,CA
US,37.64303048,-120.9104329,Empire,CA
US,33.04781,-117.262573,Encinitas,CA
US,37.79029,-120.991347,Escalon,CA
US,33.1343705,-117.0485665,Escondido,CA
US,38.69442299,-122.021905,Esparto,CA
US,41.45933998,-122.8900095,Etna,CA
US,40.785833,-124.1315605,Eureka,CA
US,36.27194999,-119.1640215,Exeter,CA
US,38.6436535,-121.2404115,Fair Oaks,CA
US,32.9908995,-117.178842,Fairbanks Ranch,CA
US,37.99107249,-122.598541,Fairfax,CA
US,38.27161,-122.036132,Fairfield,CA
US,37.67588099,-122.0369725,Fairview,CA
US,41.004084,-121.4365085,Fall River Mills,CA
US,33.380742,-117.205045,Fallbrook,CA
US,36.28023361,-119.2190299,Farmersville,CA
US,37.9253245,-120.985949,Farmington,CA
US,35.17788002,-119.5433826,Fellows,CA
US,37.04634799,-122.0480735,Felton,CA
US,40.58065199,-124.2621285,Ferndale,CA
US,38.32191294,-122.4848413,Fetters Hot Springs-Agua Caliente,CA
US,34.38433997,-118.9369684,Fillmore,CA
US,36.849098,-120.4439315,Firebaugh,CA
US,33.96636399,-118.235868,Florence-Graham,CA
US,38.4903215,-121.409176,Florin,CA
US,38.674653,-121.148849,Folsom,CA
US,34.10807891,-117.4098297,Fontana,CA
US,38.68475251,-121.339737,Foothill Farms,CA
US,33.69322799,-117.646912,Foothill Ranch,CA
US,35.16587252,-119.4509101,Ford City,CA
US,38.170371,-120.3873055,Forest Meadows,CA
US,39.0022125,-120.817185,Foresthill,CA
US,38.48241199,-122.875754,Forestville,CA
US,39.41929136,-123.805073,Fort Bragg,CA
US,41.6112545,-122.8376565,Fort Jones,CA
US,40.59726101,-124.142625,Fortuna,CA
US,37.55442632,-122.2641634,Foster City,CA
US,33.7097175,-117.9477905,Fountain Valley,CA
US,36.619876,-119.660091,Fowler,CA
US,34.809815,-118.942803,Frazier Park,CA
US,36.9399185,-121.781162,Freedom,CA
US,37.526536,-121.9097185,Fremont,CA
US,37.889075,-121.2761055,French Camp,CA
US,40.7081105,-122.62355,French Gulch,CA
US,36.69897593,-119.8291448,Fresno,CA
US,36.98293052,-119.7036786,Friant,CA
US,37.31099349,-121.934823,Fruitdale,CA
US,33.889163,-117.8984935,Fullerton,CA
US,36.4689045,-116.849726,Furnace Creek,CA
US,38.2643545,-121.297234,Galt,CA
US,37.9654235,-121.225656,Garden Acres,CA
US,33.768967,-117.933303,Garden Grove,CA
US,33.890865,-118.3040565,Gardena,CA
US,41.52039555,-122.5199901,Gazelle,CA
US,38.909831,-120.8159795,Georgetown,CA
US,40.06646498,-122.1526774,Gerber-Las Flores,CA
US,37.008763,-121.5485265,Gilroy,CA
US,34.01666249,-117.457381,Glen Avon,CA
US,38.35790249,-122.536512,Glen Ellen,CA
US,34.20684,-118.2236915,Glendale,CA
US,34.142553,-117.828599,Glendora,CA
US,38.63451151,-121.242526,Gold River,CA
US,35.1528035,-118.490825,Golden Hills,CA
US,34.45039542,-119.7800655,Goleta,CA
US,36.49022962,-121.4773129,Gonzales,CA
US,36.35625951,-119.4190815,Goshen,CA
US,39.757009,-120.6265915,Graeagle,CA
US,34.0322135,-117.3138175,Grand Terrace,CA
US,38.762518,-121.139365,Granite Bay,CA
US,32.80493849,-116.907924,Granite Hills,CA
US,39.22621999,-121.0419825,Grass Valley,CA
US,38.43656249,-122.8622035,Graton,CA
US,37.58553351,-121.1730485,Grayson,CA
US,38.2651235,-122.1685445,Green Valley,CA
US,36.32001801,-121.2400815,Greenfield,CA
US,39.906932,-120.7382785,Greenhorn,CA
US,41.54897049,-122.9140275,Greenview,CA
US,40.144954,-120.93923,Greenville,CA
US,41.63788052,-122.5279495,Grenada,CA
US,39.3647715,-121.6901285,Gridley,CA
US,37.8491,-120.1904395,Groveland-Big Oak Flat,CA
US,35.12248999,-120.6126835,Grover Beach,CA
US,34.960006,-120.5681325,Guadalupe,CA
US,38.51181299,-122.9792095,Guerneville,CA
US,37.25819449,-120.977344,Gustine,CA
US,34.011311,-117.969686,Hacienda Heights,CA
US,37.46869,-122.4273355,Half Moon Bay,CA
US,40.28115298,-121.097535,Hamilton Branch,CA
US,39.7422525,-122.012576,Hamilton City,CA
US,36.3318605,-119.625944,Hanford,CA
US,32.823801,-116.8263425,Harbison Canyon,CA
US,33.83061701,-118.0704495,Hawaiian Gardens,CA
US,33.9138525,-118.334056,Hawthorne,CA
US,40.5885505,-123.0586235,Hayfork,CA
US,37.645482,-121.9978705,Hayward,CA
US,38.6253175,-122.855907,Healdsburg,CA
US,32.73047099,-115.5172885,Heber,CA
US,33.77741399,-117.037879,Hemet,CA
US,38.00896735,-122.2415046,Hercules,CA
US,33.87146401,-118.397258,Hermosa Beach,CA
US,34.389289,-117.2966415,Hesperia,CA
US,37.6281355,-120.7509025,Hickman,CA
US,34.166356,-118.6537625,Hidden Hills,CA
US,33.2315495,-117.120291,Hidden Meadows,CA
US,38.802368,-122.5096285,Hidden Valley Lake,CA
US,34.0134435,-117.3266765,Highgrove,CA
US,34.120202,-117.182522,Highland,CA
US,37.52838701,-122.3403815,Highlands-Baywood Park,CA
US,37.55228738,-122.3316522,Hillsborough,CA
US,37.40793949,-120.84979,Hilmar-Irwin,CA
US,36.85448181,-121.4468985,Hollister,CA
US,32.81136451,-115.375531,Holtville,CA
US,36.30598101,-119.635445,Home Garden,CA
US,33.88126501,-117.5115305,Home Gardens,CA
US,33.749228,-117.100884,Homeland,CA
US,35.9006575,-117.370081,Homewood Canyon-Valley Wells,CA
US,41.908827,-122.557636,Hornbrook,CA
US,37.60159251,-120.865941,Hughson,CA
US,40.72957502,-124.1866196,Humboldt Hill,CA
US,33.6933745,-117.9868425,Huntington Beach,CA
US,33.983764,-118.20639,Huntington Park,CA
US,36.21301391,-120.0749712,Huron,CA
US,40.563785,-124.059839,Hydesville,CA
US,33.7434735,-116.7158255,Idyllwild-Pine Cove,CA
US,32.8434175,-115.5625665,Imperial,CA
US,32.5749055,-117.1094145,Imperial Beach,CA
US,36.8225765,-118.207939,Independence,CA
US,40.06426051,-120.9758455,Indian Falls,CA
US,33.7074155,-116.3362765,Indian Wells,CA
US,33.740617,-116.219289,Indio,CA
US,34.06130893,-118.0087543,Industry,CA
US,33.98115574,-118.3738241,Inglewood,CA
US,36.952836,-121.718209,Interlaken,CA
US,38.07385401,-122.8280035,Inverness,CA
US,35.6515625,-117.82154,Inyokern,CA
US,38.360642,-120.9380845,Ione,CA
US,39.781958,-120.4732175,Iron Horse,CA
US,33.6921755,-117.7333425,Irvine,CA
US,34.1150575,-117.9559035,Irwindale,CA
US,34.4191955,-119.850088,Isla Vista,CA
US,38.16198846,-121.6064164,Isleton,CA
US,36.38494349,-119.2158155,Ivanhoe,CA
US,38.35043901,-120.7716855,Jackson,CA
US,37.9521765,-120.4008255,Jamestown,CA
US,32.728267,-116.8596565,Jamul,CA
US,35.3737085,-117.64174,Johannesburg,CA
US,39.7701755,-120.6968795,Johnsville,CA
US,34.125757,-116.3039785,Joshua Tree,CA
US,33.079017,-116.577678,Julian,CA
US,40.00982849,-120.9499905,Keddie,CA
US,36.484452,-117.8723625,Keeler,CA
US,35.2305865,-118.5777955,Keene,CA
US,38.96456899,-122.818633,Kelseyville,CA
US,37.932674,-121.2441615,Kennedy,CA
US,37.9065745,-122.2677795,Kensington,CA
US,37.94797352,-122.5353871,Kentfield,CA
US,36.72119401,-120.0562665,Kerman,CA
US,35.7328935,-118.4257685,Kernville,CA
US,36.00868449,-119.9597668,Kettleman City,CA
US,37.56220251,-120.913442,Keyes,CA
US,36.2167315,-121.118157,King City,CA
US,39.24882676,-120.0185702,Kings Beach,CA
US,36.52396,-119.556864,Kingsburg,CA
US,38.6886355,-120.045629,Kirkwood,CA
US,41.5459245,-124.01857,Klamath,CA
US,37.9732075,-121.6492135,Knightsen,CA
US,34.210699,-118.195406,La Canada Flintridge,CA
US,34.228743,-118.2302175,La Crescenta-Montrose,CA
US,33.928321,-117.9386125,La Habra,CA
US,33.9611945,-117.947088,La Habra Heights,CA
US,32.7738665,-116.992376,La Mesa,CA
US,33.9055635,-117.999797,La Mirada,CA
US,33.8508145,-118.0375465,La Palma,CA
US,39.6762795,-120.981515,La Porte,CA
US,32.7057025,-116.996859,La Presa,CA
US,34.0453595,-117.956447,La Puente,CA
US,33.672828,-116.2597905,La Quinta,CA
US,38.5698195,-121.346712,La Riviera,CA
US,34.1247285,-117.7710465,La Verne,CA
US,33.9974455,-118.366925,Ladera Heights,CA
US,37.892624,-122.101807,Lafayette,CA
US,38.42181,-121.42294,Laguna,CA
US,33.55029353,-117.7457785,Laguna Beach,CA
US,33.5953515,-117.706985,Laguna Hills,CA
US,33.5287025,-117.6946055,Laguna Niguel,CA
US,38.41288149,-121.4673505,Laguna West-Lakeside,CA
US,33.608384,-117.7222855,Laguna Woods,CA
US,38.0179665,-122.6798715,Lagunitas-Forest Knolls,CA
US,40.27074601,-121.1420545,Lake Almanor Country Club,CA
US,40.27402702,-121.1239886,Lake Almanor Peninsula,CA
US,40.24703153,-121.2081156,Lake Almanor West,CA
US,34.2675725,-117.1798,Lake Arrowhead,CA
US,39.85311,-120.461255,Lake Davis,CA
US,33.7154055,-117.331407,Lake Elsinore,CA
US,33.661177,-117.648987,Lake Forest,CA
US,35.6369005,-118.458138,Lake Isabella,CA
US,34.616966,-117.836017,Lake Los Angeles,CA
US,35.7354715,-120.870634,Lake Nacimiento,CA
US,39.035455,-121.056165,Lake of the Pines,CA
US,34.826901,-119.002226,Lake of the Woods,CA
US,33.11650665,-117.224679,Lake San Marcos,CA
US,39.23403,-121.1928635,Lake Wildwood,CA
US,40.9100365,-122.394703,Lakehead-Lakeshore,CA
US,33.6410035,-117.3441485,Lakeland Village,CA
US,39.01501508,-122.9223327,Lakeport,CA
US,32.8502605,-116.8995435,Lakeside,CA
US,33.8301205,-117.118311,Lakeview,CA
US,33.850315,-118.103099,Lakewood,CA
US,35.27035251,-118.9043725,Lamont,CA
US,36.43749851,-119.931863,Lanare,CA
US,34.6966255,-118.096584,Lancaster,CA
US,38.49210988,-122.7395476,Larkfield-Wikiup,CA
US,37.939674,-122.5270865,Larkspur,CA
US,33.577285,-117.622816,Las Flores,CA
US,36.87195351,-121.729558,Las Lomas,CA
US,37.813727,-121.3380545,Lathrop,CA
US,36.43334999,-119.6873155,Laton,CA
US,33.88756401,-118.352507,Lawndale,CA
US,39.672726,-123.4933715,Laytonville,CA
US,37.2176505,-120.256999,Le Grand,CA
US,34.8349595,-118.893418,Lebec,CA
US,36.37967952,-119.0310786,Lemon Cove,CA
US,32.7326915,-117.0307165,Lemon Grove,CA
US,36.292713,-119.7861765,Lemoore,CA
US,36.26253501,-119.8874265,Lemoore Station,CA
US,33.9385635,-118.355452,Lennox,CA
US,34.88473399,-117.104899,Lenwood,CA
US,40.6939095,-122.773388,Lewiston,CA
US,37.167389,-121.98202,Lexington Hills,CA
US,38.892114,-121.286463,Lincoln,CA
US,38.006389,-121.332346,Lincoln Village,CA
US,39.1228395,-121.5518215,Linda,CA
US,38.0214225,-121.081903,Linden,CA
US,36.20727999,-119.08013,Lindsay,CA
US,39.727316,-120.9584065,Little Grass Valley,CA
US,34.52202451,-117.981612,Littlerock,CA
US,36.99070853,-121.9694186,Live Oak,CA
US,37.6811015,-121.739906,Livermore,CA
US,37.39001508,-120.7552268,Livingston,CA
US,38.1475185,-121.146705,Lockeford,CA
US,38.1281185,-121.270786,Lodi,CA
US,34.07553265,-117.2500385,Loma Linda,CA
US,39.3258875,-121.3991915,Loma Rica,CA
US,33.79133601,-118.310005,Lomita,CA
US,34.66713258,-120.4435928,Lompoc,CA
US,36.48085805,-119.4441662,London,CA
US,36.5904445,-118.0682425,Lone Pine,CA
US,33.776864,-118.155212,Long Beach,CA
US,38.8054115,-121.1896215,Loomis,CA
US,33.8002655,-118.052462,Los Alamitos,CA
US,34.7373235,-120.2741545,Los Alamos,CA
US,37.36661,-122.0969,Los Altos,CA
US,37.363608,-122.151832,Los Altos Hills,CA
US,34.05209,-118.239669,Los Angeles,CA
US,33.9340485,-118.2503075,Los Angeles OLD,CA
US,37.05833751,-120.7964375,Los Banos,CA
US,37.2333435,-121.9424085,Los Gatos,CA
US,40.0162375,-122.0872955,Los Molinos,CA
US,35.63747,-119.6707485,Lost Hills,CA
US,38.900811,-122.6072925,Lower Lake,CA
US,39.67681607,-120.2394962,Loyalton,CA
US,37.3470905,-122.095523,Loyola,CA
US,38.0397215,-122.571546,Lucas Valley-Marinwood,CA
US,39.071696,-122.7811525,Lucerne,CA
US,33.925137,-118.196861,Lynwood,CA
US,41.82626854,-122.0043947,Macdoel,CA
US,36.9800875,-120.0712015,Madera,CA
US,37.011017,-120.082968,Madera Acres,CA
US,39.821512,-121.610391,Magalia,CA
US,34.0490405,-118.7963705,Malibu,CA
US,37.62694948,-118.8452359,Mammoth Lakes,CA
US,33.8893135,-118.4003545,Manhattan Beach,CA
US,37.79908,-121.2167175,Manteca,CA
US,40.417607,-121.850807,Manton,CA
US,33.895117,-117.266473,March AFB,CA
US,35.05020549,-119.399944,Maricopa,CA
US,36.6756085,-121.77286,Marina,CA
US,33.97370249,-118.443361,Marina del Rey,CA
US,37.4823225,-119.96191,Mariposa,CA
US,38.669534,-119.7957325,Markleeville,CA
US,38.016821,-122.103075,Martinez,CA
US,39.17154354,-121.5479806,Marysville,CA
US,34.11515749,-118.010049,Mayflower Village,CA
US,33.98846349,-118.187109,Maywood,CA
US,41.040529,-121.406376,McArthur,CA
US,41.24889549,-122.1313645,McCloud,CA
US,35.67743549,-119.221115,McFarland,CA
US,40.9634705,-124.0702215,McKinleyville,CA
US,35.2915895,-119.6208635,McKittrick,CA
US,39.9431455,-121.076858,Meadow Valley,CA
US,39.00230799,-121.0099865,Meadow Vista,CA
US,33.576629,-116.0702995,Mecca,CA
US,34.45150047,-119.2639854,Meiners Oaks,CA
US,39.31318501,-123.785769,Mendocino,CA
US,36.759127,-120.3782145,Mendota,CA
US,37.458488,-122.195176,Menlo Park,CA
US,34.059015,-117.1003175,Mentone,CA
US,37.317043,-120.442694,Merced,CA
US,37.4198835,-118.537368,Mesa,CA
US,38.796597,-119.8301835,Mesa Vista,CA
US,35.06350747,-118.9728634,Mettler,CA
US,38.060183,-120.1742755,Mi-Wuk Village,CA
US,38.74813949,-122.6210705,Middletown,CA
US,37.906698,-122.5371225,Mill Valley,CA
US,37.59855499,-122.393671,Millbrae,CA
US,40.557617,-122.16996,Millville,CA
US,37.4391895,-121.8690865,Milpitas,CA
US,40.3761385,-121.565808,Mineral,CA
US,33.9777975,-117.504194,Mira Loma,CA
US,34.432822,-119.2737675,Mira Monte,CA
US,34.452565,-119.709269,Mission Canyon,CA
US,34.68905151,-120.4315975,Mission Hills,CA
US,33.6038515,-117.647539,Mission Viejo,CA
US,37.61464897,-120.9949932,Modesto,CA
US,39.801615,-120.5815375,Mohawk Vista,CA
US,35.010207,-118.1760195,Mojave,CA
US,38.30405399,-120.701644,Mokelumne Hill,CA
US,38.0166175,-120.2564415,Mono Vista,CA
US,34.155806,-117.9817605,Monrovia,CA
US,41.72562998,-122.5181824,Montague,CA
US,37.5495885,-122.482287,Montara,CA
US,34.0714495,-117.6920925,Montclair,CA
US,38.47018496,-123.0051974,Monte Rio,CA
US,37.240715,-121.989097,Monte Sereno,CA
US,34.010362,-118.103389,Montebello,CA
US,34.4365455,-119.6257135,Montecito,CA
US,36.59503446,-121.857877,Monterey,CA
US,34.0494105,-118.1230135,Monterey Park,CA
US,40.84601649,-121.9082155,Montgomery Creek,CA
US,34.299213,-118.858123,Moorpark,CA
US,38.04337149,-121.2419065,Morada,CA
US,37.842206,-122.110375,Moraga,CA
US,33.9217685,-117.1820255,Moreno Valley,CA
US,37.1041709,-121.6268497,Morgan Hill,CA
US,34.0532005,-116.582153,Morongo Valley,CA
US,35.3886955,-120.8459585,Morro Bay,CA
US,37.5202895,-122.4962385,Moss Beach,CA
US,36.80380553,-121.7877638,Moss Landing,CA
US,41.78505555,-122.0077577,Mount Hebron,CA
US,41.323978,-122.3054465,Mount Shasta,CA
US,35.63944902,-118.4026936,Mountain Mesa,CA
US,38.2392245,-120.470635,Mountain Ranch,CA
US,37.40071,-122.072181,Mountain View,CA
US,34.49933499,-117.3415595,Mountain View Acres,CA
US,37.8692765,-122.5846385,Muir Beach,CA
US,38.142655,-120.40527,Murphys,CA
US,33.57746,-117.187296,Murrieta,CA
US,33.56016049,-117.1500805,Murrieta Hot Springs,CA
US,34.1550255,-117.3513155,Muscoy,CA
US,40.78645549,-124.12249,Myrtletown,CA
US,38.32310501,-122.34024,Napa,CA
US,32.671831,-117.0671115,National City,CA
US,34.873035,-116.9577385,Nebo Center,CA
US,34.85876996,-114.610486,Needles,CA
US,39.27556492,-121.0320157,Nevada City,CA
US,37.521223,-122.0133405,Newark,CA
US,37.3141665,-121.017466,Newman,CA
US,33.6418705,-117.906676,Newport Beach,CA
US,33.59417031,-117.8156528,Newport Coast,CA
US,39.12127901,-122.8408855,Nice,CA
US,33.237439,-115.5136935,Niland,CA
US,35.0355845,-120.481242,Nipomo,CA
US,33.9264145,-117.552172,Norco,CA
US,38.9302735,-121.068432,North Auburn,CA
US,35.051191,-117.8054205,North Edwards,CA
US,34.10179151,-118.021867,North El Monte,CA
US,37.47471298,-122.1996214,North Fair Oaks,CA
US,38.6720045,-121.368513,North Highlands,CA
US,39.0902855,-122.8968415,North Lakeport,CA
US,38.1721175,-121.305709,North Woodbridge,CA
US,33.9106135,-118.0663485,Norwalk,CA
US,38.0949875,-122.5367533,Novato,CA
US,33.8096875,-117.117874,Nuevo,CA
US,34.173573,-118.755778,Oak Park,CA
US,34.40196699,-119.290257,Oak View,CA
US,37.75934341,-120.8013842,Oakdale,CA
US,37.3328545,-119.634443,Oakhurst,CA
US,37.8039815,-122.177327,Oakland,CA
US,38.012771,-121.7127145,Oakley,CA
US,38.4038935,-122.9328815,Occidental,CA
US,35.10527299,-120.6072705,Oceano,CA
US,33.222745,-117.26263,Oceanside,CA
US,32.741655,-115.988813,Ocotillo,CA
US,35.4234145,-119.0208065,Oildale,CA
US,34.4498795,-119.242023,Ojai,CA
US,36.2653815,-118.0010655,Olancha,CA
US,39.0806335,-121.540575,Olivehurst,CA
US,34.0340115,-117.5892855,Ontario,CA
US,35.687297,-118.188579,Onyx,CA
US,36.96145456,-121.9705348,Opal Cliffs,CA
US,33.810466,-117.790466,Orange,CA
US,36.60665737,-119.3351841,Orange Cove,CA
US,38.691582,-121.2047905,Orangevale,CA
US,34.873019,-120.4146285,Orcutt,CA
US,37.876625,-122.1720035,Orinda,CA
US,39.7463855,-122.1748605,Orland,CA
US,36.54523649,-119.2914625,Orosi,CA
US,39.513955,-121.5413245,Oroville,CA
US,39.5076285,-121.481955,Oroville East,CA
US,34.1830819,-119.1623475,Oxnard,CA
US,37.9889215,-122.0678885,Pacheco,CA
US,36.624859,-121.9220093,Pacific Grove,CA
US,37.6153855,-122.4628855,Pacifica,CA
US,36.90153895,-121.7374059,Pajaro,CA
US,39.4332905,-121.5063715,Palermo,CA
US,33.7610355,-116.349396,Palm Desert,CA
US,33.7679575,-116.5070455,Palm Springs,CA
US,34.5861065,-118.067473,Palmdale,CA
US,37.435067,-122.145996,Palo Alto,CA
US,40.54831152,-122.229282,Palo Cedro,CA
US,33.42622849,-114.725565,Palo Verde,CA
US,33.7931155,-118.3799686,Palos Verdes Estates,CA
US,39.766102,-121.5726325,Paradise,CA
US,33.910883,-118.1609045,Paramount,CA
US,36.94891251,-120.018276,Parksdale,CA
US,38.51779449,-121.444796,Parkway-South Sacramento,CA
US,36.93346945,-120.0421198,Parkwood,CA
US,36.59691587,-119.5702776,Parlier,CA
US,34.1915545,-118.1317105,Pasadena,CA
US,37.50130093,-121.0946003,Patterson,CA
US,40.03500995,-121.0000744,Paxton,CA
US,35.820144,-117.871249,Pearsonville,CA
US,33.983164,-117.4664305,Pedley,CA
US,39.20379104,-121.1893221,Penn Valley,CA
US,33.79222,-117.221031,Perris,CA
US,38.2441465,-122.625909,Petaluma,CA
US,38.038529,-120.2897105,Phoenix Lake-Cedar Ridge,CA
US,33.9881355,-118.077851,Pico Rivera,CA
US,37.8222765,-122.2274785,Piedmont,CA
US,40.732211,-124.156222,Pine Hills,CA
US,34.843117,-119.157235,Pine Mountain Club,CA
US,32.8424785,-116.4952425,Pine Valley,CA
US,37.99429316,-122.2794818,Pinole,CA
US,34.401675,-118.7977565,Piru,CA
US,35.1606705,-120.6650775,Pismo Beach,CA
US,38.0214695,-121.897523,Pittsburg,CA
US,35.97885149,-119.286104,Pixley,CA
US,33.8688645,-117.8502905,Placentia,CA
US,38.7316895,-120.7894275,Placerville,CA
US,37.28846299,-120.3142195,Planada,CA
US,37.95393499,-122.0685735,Pleasant Hill,CA
US,37.6617545,-121.8617375,Pleasanton,CA
US,39.80675599,-120.661689,Plumas Eureka,CA
US,38.47713496,-120.8408934,Plymouth,CA
US,38.9113425,-123.69874,Point Arena,CA
US,38.08941899,-122.794329,Point Reyes Station,CA
US,38.7482035,-120.569826,Pollock Pines,CA
US,34.0647005,-117.7680955,Pomona,CA
US,36.05500805,-119.1388127,Poplar-Cotton Center,CA
US,38.04468799,-122.1876955,Port Costa,CA
US,34.1600045,-119.1953445,Port Hueneme,CA
US,36.06245855,-118.9829579,Porterville,CA
US,39.8081525,-120.471534,Portola,CA
US,33.68853749,-117.6321235,Portola Hills,CA
US,37.36954,-122.212052,Portola Valley,CA
US,32.999344,-116.9832345,Poway,CA
US,40.20633402,-121.158057,Prattville,CA
US,36.808606,-121.658304,Prunedale,CA
US,33.70760599,-117.2468544,Quail Valley,CA
US,34.6549575,-118.2120095,Quartz Hill,CA
US,39.939085,-120.954997,Quincy,CA
US,38.3160025,-120.4564595,Rail Road Flat,CA
US,33.40268,-117.1238195,Rainbow,CA
US,36.60269753,-119.9078291,Raisin City,CA
US,33.0350045,-116.8461585,Ramona,CA
US,38.135863,-120.8348125,Rancho Calaveras,CA
US,38.5796055,-121.28491,Rancho Cordova,CA
US,34.1213385,-117.5398375,Rancho Cucamonga,CA
US,33.769857,-116.4240955,Rancho Mirage,CA
US,38.511076,-121.0665905,Rancho Murieta,CA
US,33.768631,-118.3617055,Rancho Palos Verdes,CA
US,32.760752,-116.916978,Rancho San Diego,CA
US,33.0267865,-117.1853675,Rancho Santa Fe,CA
US,33.6410785,-117.5829935,Rancho Santa Margarita,CA
US,39.9899355,-122.4345135,Rancho Tehama Reserve,CA
US,35.3694805,-117.660285,Randsburg,CA
US,40.198657,-122.2320885,Red Bluff,CA
US,40.50602298,-122.3871184,Redding,CA
US,34.07671406,-117.1251261,Redlands,CA
US,33.8550145,-118.369007,Redondo Beach,CA
US,40.1217015,-123.8198695,Redway,CA
US,37.48439296,-122.2569606,Redwood City,CA
US,36.66949981,-119.4509169,Reedley,CA
US,34.087586,-117.3644965,Rialto,CA
US,35.79798298,-119.1085894,Richgrove,CA
US,37.95861853,-122.2909355,Richmond,CA
US,35.6223825,-117.652157,Ridgecrest,CA
US,36.80599751,-121.35302,Ridgemark,CA
US,36.95595101,-121.882767,Rio del Mar,CA
US,40.4988065,-124.1073525,Rio Dell,CA
US,38.68700249,-121.451015,Rio Linda,CA
US,38.175212,-121.690085,Rio Vista,CA
US,37.74317751,-121.119899,Ripon,CA
US,37.72914051,-120.9305175,Riverbank,CA
US,36.42539951,-119.872822,Riverdale,CA
US,37.60311753,-121.0465401,Riverdale Park,CA
US,33.9497155,-117.315394,Riverside,CA
US,38.8127765,-121.2088295,Rocklin,CA
US,38.0263255,-122.221034,Rodeo,CA
US,38.34334751,-122.687976,Rohnert Park,CA
US,33.757017,-118.343605,Rolling Hills,CA
US,33.7800665,-118.3396555,Rolling Hills Estates,CA
US,37.9644728,-122.3295804,Rollingwood,CA
US,33.743149,-117.171632,Romoland,CA
US,34.8715135,-118.1888675,Rosamond,CA
US,35.3980855,-119.158991,Rosedale,CA
US,38.42745751,-122.724738,Roseland,CA
US,34.064893,-118.072905,Rosemead,CA
US,38.5477065,-121.357243,Rosemont,CA
US,38.7227614,-121.1865177,Roseville,CA
US,37.96442347,-122.5493874,Ross,CA
US,33.79036599,-118.0766864,Rossmoor,CA
US,40.80288799,-121.9312505,Round Mountain,CA
US,37.411363,-118.561421,Round Valley,CA
US,33.9803455,-117.8664935,Rowland Heights,CA
US,33.9934635,-117.416969,Rubidoux,CA
US,34.2178035,-117.1012495,Running Springs,CA
US,38.5926085,-121.432664,Sacramento,CA
US,37.7190285,-121.0794955,Salida,CA
US,36.66030885,-121.6839065,Salinas,CA
US,33.2977005,-115.949349,Salton City,CA
US,33.37899046,-116.0107879,Salton Sea Beach,CA
US,38.1821485,-120.6588555,San Andreas,CA
US,37.9892225,-122.563889,San Anselmo,CA
US,34.152758,-117.6605375,San Antonio Heights,CA
US,36.01902693,-120.9057348,San Ardo,CA
US,34.1759585,-117.28306,San Bernardino,CA
US,37.622716,-122.413724,San Bruno,CA
US,34.28785202,-119.1721761,San Buenaventura (Ventura),CA
US,37.501338,-122.2546215,San Carlos,CA
US,33.4352505,-117.6163045,San Clemente,CA
US,32.715088,-117.140693,San Diego,CA
US,33.00953,-116.770824,San Diego Country Estates,CA
US,34.118373,-117.7918455,San Dimas,CA
US,34.28479649,-118.4341885,San Fernando,CA
US,37.764744,-122.448635,San Francisco,CA
US,37.69847627,-123.0055525,San Francisco OLD,CA
US,34.10350849,-118.087782,San Gabriel,CA
US,38.00732499,-122.6604445,San Geronimo,CA
US,33.8087355,-116.97049,San Jacinto,CA
US,36.59889099,-120.216734,San Joaquin,CA
US,33.616395,-117.836283,San Joaquin Hills,CA
US,37.37596033,-121.8343068,San Jose,CA
US,37.282265,-121.783326,San Jose OLD,CA
US,36.84307703,-121.5257091,San Juan Bautista,CA
US,33.5052385,-117.6493565,San Juan Capistrano,CA
US,37.71308601,-122.1344255,San Leandro,CA
US,37.6734805,-122.124975,San Lorenzo,CA
US,36.12929552,-121.0196051,San Lucas,CA
US,35.272951,-120.649225,San Luis Obispo,CA
US,33.1359275,-117.156879,San Marcos,CA
US,34.125516,-118.1007655,San Marino,CA
US,37.0896405,-121.5872965,San Martin,CA
US,37.55121302,-122.3071295,San Mateo,CA
US,35.756316,-120.6913635,San Miguel,CA
US,37.9670725,-122.330881,San Pablo,CA
US,38.00275757,-122.512435,San Rafael,CA
US,37.757418,-121.933744,San Ramon,CA
US,36.620105,-121.845677,Sand City,CA
US,36.6992575,-119.5420195,Sanger,CA
US,33.740202,-117.867489,Santa Ana,CA
US,34.440098,-119.685167,Santa Barbara,CA
US,37.34969,-121.969528,Santa Clara,CA
US,34.446536,-118.4727805,Santa Clarita,CA
US,36.97571,-122.0323319,Santa Cruz,CA
US,33.928684,-118.051843,Santa Fe Springs,CA
US,34.94966592,-120.4972172,Santa Maria,CA
US,34.026009,-118.468763,Santa Monica,CA
US,34.356812,-119.058581,Santa Paula,CA
US,38.37062894,-122.7731588,Santa Rosa,CA
US,38.0063423,-122.484335,Santa Venetia,CA
US,34.608464,-120.095108,Santa Ynez,CA
US,32.8620855,-116.9706305,Santee,CA
US,37.2663395,-122.0067695,Saratoga,CA
US,37.858418,-122.492767,Sausalito,CA
US,37.05719751,-122.002272,Scotts Valley,CA
US,33.755867,-118.062095,Seal Beach,CA
US,35.7661875,-117.3882355,Searles Valley,CA
US,36.6258595,-121.8257455,Seaside,CA
US,38.4004295,-122.8248525,Sebastopol,CA
US,33.646114,-117.2826925,Sedco Hills,CA
US,32.78842049,-115.6806765,Seeley,CA
US,36.5845055,-119.619545,Selma,CA
US,37.29179291,-121.8416082,Seven Trees,CA
US,37.61668149,-120.9888445,Shackelford,CA
US,35.4796295,-119.219884,Shafter,CA
US,35.65329449,-120.386618,Shandon,CA
US,40.6886875,-122.374131,Shasta Lake,CA
US,37.11775,-119.3031765,Shaver Lake,CA
US,38.6712075,-120.935418,Shingle Springs,CA
US,40.5024615,-121.850711,Shingletown,CA
US,35.9391455,-116.2830565,Shoshone,CA
US,34.1682055,-118.047657,Sierra Madre,CA
US,33.8043665,-118.1661505,Signal Hill,CA
US,34.254633,-118.710767,Simi Valley,CA
US,32.9914165,-117.252587,Solana Beach,CA
US,36.40441816,-121.317716,Soledad,CA
US,34.5936145,-120.1326615,Solvang,CA
US,38.28581424,-122.4344908,Sonoma,CA
US,37.9868735,-120.373937,Sonora,CA
US,36.98836999,-121.94937,Soquel,CA
US,37.993571,-120.255071,Soulsbyville,CA
US,36.97097701,-120.6470625,South Dos Palos,CA
US,34.0531485,-118.0475545,South El Monte,CA
US,33.9379415,-118.1903365,South Gate,CA
US,38.94125008,-119.9664085,South Lake Tahoe,CA
US,39.489115,-121.5218375,South Oroville,CA
US,34.1122085,-118.156404,South Pasadena,CA
US,37.653798,-122.4054708,South San Francisco,CA
US,34.0494105,-118.0949895,South San Gabriel,CA
US,34.01449749,-117.897769,South San Jose Hills,CA
US,35.12968249,-119.4598195,South Taft,CA
